{"results": [{"category": ["Food", "Cafe"], "geocode": {"lat": 67.333, "lng": -1.43}, "_id": "57cf75cea73e494d8675ec49", "name": "Dunkin", "address": {"city": "Brooklyn", "state": "NY", "zip": "07009", "street_name": "Lafayette St.", "street_number": "5901"}}, {"category": ["furniture_store", "home_goods_store", "store", "point_of_interest", "establishment"], "geocode": {"lat": 42.44091900000001, "lng": -76.4985975}, "_id": "57cf75cea73e494d8675ec4a", "name": "Pastimes Antiques", "address": {"city": "Ithaca", "state": "NY", "street number": "215", "zip": "14850", "street name": "North Cayuga Street"}}, {"category": ["food", "point_of_interest", "establishment"], "geocode": {"lat": 42.4508216, "lng": -76.5094639}, "_id": "57cf75cea73e494d8675ec4b", "name": "Ithaca Farmers' Market", "address": {"city": "Ithaca", "state": "NY", "street number": "545", "zip": "14851", "street name": "3rd Street"}}, {"category": ["lodging", "restaurant", "food", "point_of_interest", "establishment"], "geocode": {"lat": 42.54457119999999, "lng": -76.5983802}, "_id": "57cf75cea73e494d8675ec4c", "name": "Taughannock Farms Inn", "address": {"city": "Trumansburg", "state": "NY", "street number": "2030", "zip": "14886", "street name": "Gorge Road"}}, {"category": ["cafe", "bakery", "meal_takeaway", "restaurant", "food", "store", "point_of_interest", "establishment"], "geocode": {"lat": 42.44261090000001, "lng": -76.5086618}, "_id": "57cf75cea73e494d8675ec4d", "name": "Ithaca Bakery", "address": {"city": "Ithaca", "state": "NY", "street number": "400", "zip": "14850", "street name": "North Meadow Street"}}, {"category": ["bar", "lodging", "health", "restaurant", "food", "point_of_interest", "establishment"], "geocode": {"lat": 42.75448799999999, "lng": -76.7032}, "_id": "57cf75cea73e494d8675ec4e", "name": "Aurora Inn", "address": {"city": "Aurora", "state": "NY", "street number": "391", "zip": "13026", "street name": "Main Street"}}, {"category": ["store", "point_of_interest", "establishment"], "geocode": {"lat": 42.4497493, "lng": -76.50136429999999}, "_id": "57cf75cea73e494d8675ec4f", "name": "Zimet Musical Services", "address": {"city": "Ithaca", "state": "NY", "street number": "104", "zip": "14850", "street name": "Adams Street"}}, {"category": ["lodging", "clothing_store", "store", "point_of_interest", "establishment"], "geocode": {"lat": 42.47999799999999, "lng": -76.48118199999999}, "_id": "57cf75cea73e494d8675ec50", "name": "Terra Rosa", "address": {"city": "Ithaca", "state": "NY", "street number": "2255", "zip": "14850", "street name": "North Triphammer Road"}}, {"category": ["store", "point_of_interest", "establishment"], "geocode": {"lat": 42.6011813, "lng": -76.1804843}, "_id": "57cf75cea73e494d8675ec51", "name": "shworldofgifts", "address": {"city": "Cortland", "state": "NY", "zip": "13045"}}, {"category": ["food", "home_goods_store", "store", "point_of_interest", "establishment"], "geocode": {"lat": 42.429088, "lng": -76.51341959999999}, "_id": "57cf75cea73e494d8675ec52", "name": "Dollar Tree", "address": {"city": "Ithaca", "state": "NY", "street number": "131", "zip": "14850", "street name": "Fairgrounds Memorial Parkway"}}, {"category": ["electronics_store", "store", "point_of_interest", "establishment"], "geocode": {"lat": 42.42904199999999, "lng": -76.508494}, "_id": "57cf75cea73e494d8675ec53", "name": "AT&T", "address": {"city": "Ithaca", "state": "NY", "street number": "748", "zip": "14850", "street name": "South Meadow Street"}}, {"category": ["food", "point_of_interest", "establishment"], "geocode": {"lat": 42.4177286, "lng": -76.4545649}, "_id": "57cf75cea73e494d8675ec54", "name": "Six Mile Creek Vineyard", "address": {"city": "Ithaca", "state": "NY", "street number": "1551", "zip": "14850", "street name": "Slaterville Road"}}, {"category": ["restaurant", "food", "point_of_interest", "establishment"], "geocode": {"lat": 42.4394625, "lng": -76.5074715}, "_id": "57cf75cea73e494d8675ec55", "name": "Saigon Kitchen", "address": {"city": "Ithaca", "state": "NY", "street number": "526", "zip": "14850", "street name": "West State Street"}}, {"category": ["cafe", "bar", "grocery_or_supermarket", "food", "store", "point_of_interest", "establishment"], "geocode": {"lat": 42.4796995, "lng": -76.4818799}, "_id": "57cf75cea73e494d8675ec56", "name": "Ithaca Coffee Company", "address": {"city": "Ithaca", "state": "NY", "street number": "2255", "zip": "14850", "street name": "North Triphammer Road"}}, {"category": ["bar", "liquor_store", "food", "store", "point_of_interest", "establishment"], "geocode": {"lat": 42.479442, "lng": -76.481917}, "_id": "57cf75cea73e494d8675ec57", "name": "Triphammer Wines & Spirits", "address": {"city": "Ithaca", "state": "NY", "street number": "2255", "zip": "14850", "street name": "North Triphammer Road"}}, {"category": ["book_store", "store", "point_of_interest", "establishment"], "geocode": {"lat": 42.441055, "lng": -76.49871499999999}, "_id": "57cf75cea73e494d8675ec58", "name": "The Bookery", "address": {"city": "Ithaca", "state": "NY", "street number": "215", "zip": "14850", "street name": "North Cayuga Street"}}, {"category": ["store", "point_of_interest", "establishment"], "geocode": {"lat": 42.43713899999999, "lng": -76.509185}, "_id": "57cf75cea73e494d8675ec59", "name": "Unique eCigs - Ithaca, NY", "address": {"city": "Ithaca", "state": "NY", "street number": "222", "zip": "14850", "street name": "South Fulton Street"}}, {"category": ["electronics_store", "store", "point_of_interest", "establishment"], "geocode": {"lat": 42.483327, "lng": -76.490933}, "_id": "57cf75cea73e494d8675ec5a", "name": "AT&T Authorized Retailer", "address": {"city": "Ithaca", "state": "NY", "street number": "40", "zip": "14850", "street name": "Catherwood Road"}}, {"category": ["meal_takeaway", "bar", "restaurant", "food", "point_of_interest", "establishment"], "geocode": {"lat": 42.4204429, "lng": -76.5214759}, "_id": "57cf75cea73e494d8675ec5b", "name": "Buffalo Wild Wings", "address": {"city": "Ithaca", "state": "NY", "street number": "410", "zip": "14850", "street name": "Elmira Road"}}, {"category": ["clothing_store", "store", "point_of_interest", "establishment"], "geocode": {"lat": 42.483327, "lng": -76.490933}, "_id": "57cf75cea73e494d8675ec5c", "name": "Dockers", "address": {"city": "Ithaca", "state": "NY", "street number": "40", "zip": "14850", "street name": "Catherwood Road"}}, {"category": ["store", "point_of_interest", "establishment"], "geocode": {"lat": 42.440664, "lng": -76.498852}, "_id": "57cf75cea73e494d8675ec5d", "name": "Ithaca Guitar Works Inc", "address": {"city": "Ithaca", "state": "NY", "street number": "215", "zip": "14850", "street name": "North Cayuga Street"}}, {"category": ["bar", "liquor_store", "restaurant", "food", "store", "point_of_interest", "establishment"], "geocode": {"lat": 42.416835, "lng": -76.53486}, "_id": "57cf75cea73e494d8675ec5e", "name": "Ithaca Beer Co", "address": {"city": "Ithaca", "state": "NY", "street number": "122", "zip": "14850", "street name": "Ithaca Beer Drive"}}, {"category": ["department_store", "electronics_store", "grocery_or_supermarket", "food", "store", "point_of_interest", "establishment"], "geocode": {"lat": 42.4275522, "lng": -76.5140254}, "_id": "57cf75cea73e494d8675ec5f", "name": "Walmart Supercenter", "address": {"city": "Ithaca", "state": "NY", "street number": "135", "zip": "14850", "street name": "Fairgrounds Memorial Parkway"}}, {"category": ["restaurant", "food", "point_of_interest", "establishment"], "geocode": {"lat": 42.3940302, "lng": -76.3811582}, "_id": "57cf75cea73e494d8675ec60", "name": "Celebrations Banquet Facility & Catering", "address": {"city": "Ithaca", "state": "NY", "street number": "2331", "zip": "14850", "street name": "Slaterville Road"}}, {"category": ["hardware_store", "furniture_store", "home_goods_store", "store", "point_of_interest", "establishment"], "geocode": {"lat": 42.419794, "lng": -76.524013}, "_id": "57cf75cea73e494d8675ec61", "name": "The Home Depot", "address": {"city": "Ithaca", "state": "NY", "zip": "14850"}}, {"category": ["car_dealer", "car_repair", "store", "point_of_interest", "establishment"], "geocode": {"lat": 42.42655399999999, "lng": -76.509425}, "_id": "57cf75cea73e494d8675ec62", "name": "Honda of Ithaca", "address": {"city": "Ithaca", "state": "NY", "street number": "315", "zip": "14850", "street name": "Elmira Road"}}, {"category": ["natural_feature", "food", "store", "point_of_interest", "establishment"], "geocode": {"lat": 42.62786999999999, "lng": -76.71015400000002}, "_id": "57cf75cea73e494d8675ec63", "name": "Lucas Vineyards", "address": {"city": "Interlaken", "state": "NY", "street number": "3862", "zip": "14847", "street name": "County Road 150"}}, {"category": ["restaurant", "food", "point_of_interest", "establishment"], "geocode": {"lat": 42.4406492, "lng": -76.4986583}, "_id": "57cf75cea73e494d8675ec64", "name": "Moosewood", "address": {"city": "Ithaca", "state": "NY", "street number": "215", "zip": "14850", "street name": "North Cayuga Street"}}, {"category": ["restaurant", "food", "point_of_interest", "establishment"], "geocode": {"lat": 42.4418669, "lng": -76.4869796}, "_id": "57cf75cea73e494d8675ec65", "name": "Subway", "address": {"city": "Ithaca", "state": "NY", "street number": "105", "zip": "14850", "street name": "Dryden Road"}}, {"category": ["store", "point_of_interest", "establishment"], "geocode": {"lat": 42.483327, "lng": -76.490933}, "_id": "57cf75cea73e494d8675ec66", "name": "Pop-Poster Art", "address": {"city": "Ithaca", "state": "NY", "street number": "40", "zip": "14850", "street name": "Catherwood Road"}}, {"category": ["car_repair", "store", "point_of_interest", "establishment"], "geocode": {"lat": 42.4395007, "lng": -76.5126879}, "_id": "57cf75cea73e494d8675ec67", "name": "Trombley Tire & Auto", "address": {"city": "Ithaca", "state": "NY", "street number": "917", "zip": "14850", "street name": "West State Street"}}, {"category": ["food", "point_of_interest", "establishment"], "geocode": {"lat": 42.1943734, "lng": -76.3133431}, "_id": "57cf75cea73e494d8675ec68", "name": "Iron Kettle Farm", "address": {"city": "Candor", "state": "NY", "street number": "707", "zip": "13743", "street name": "Owego Road"}}, {"category": ["grocery_or_supermarket", "food", "store", "point_of_interest", "establishment"], "geocode": {"lat": 42.4815951, "lng": -76.4874179}, "_id": "57cf75cea73e494d8675ec69", "name": "TOPS Friendly Markets", "address": {"city": "Ithaca", "state": "NY", "street number": "2300", "zip": "14850", "street name": "North Triphammer Road"}}, {"category": ["bar", "restaurant", "food", "point_of_interest", "establishment"], "geocode": {"lat": 42.44009579999999, "lng": -76.495857}, "_id": "57cf75cea73e494d8675ec6a", "name": "Mahogany Grill", "address": {"city": "Ithaca", "state": "NY", "street number": "112", "zip": "14850", "street name": "North Aurora Street"}}, {"category": ["art_gallery", "food", "store", "point_of_interest", "establishment"], "geocode": {"lat": 42.6503598, "lng": -76.6345552}, "_id": "57cf75cea73e494d8675ec6b", "name": "Treleaven by King Ferry Winery", "address": {"city": "King Ferry", "state": "NY", "street number": "658", "zip": "13081", "street name": "Lake Road"}}, {"category": ["bar", "restaurant", "food", "point_of_interest", "establishment"], "geocode": {"lat": 42.4399886, "lng": -76.49550830000001}, "_id": "57cf75cea73e494d8675ec6c", "name": "Ithaca Ale House", "address": {"city": "Ithaca", "state": "NY", "street number": "111", "zip": "14850", "street name": "North Aurora Street"}}, {"category": ["book_store", "store", "point_of_interest", "establishment"], "geocode": {"lat": 42.4330064, "lng": -76.5102445}, "_id": "57cf75cea73e494d8675ec6d", "name": "Barnes & Noble", "address": {"city": "Ithaca", "state": "NY", "street number": "614", "zip": "14850", "street name": "South Meadow Street"}}, {"category": ["store", "point_of_interest", "establishment"], "geocode": {"lat": 42.44953150000001, "lng": -76.5012212}, "_id": "57cf75cea73e494d8675ec6e", "name": "Hickey's Music Center", "address": {"city": "Ithaca", "state": "NY", "street number": "104", "zip": "14850", "street name": "Adams Street"}}, {"category": ["clothing_store", "shoe_store", "home_goods_store", "store", "point_of_interest", "establishment"], "geocode": {"lat": 42.4385229, "lng": -76.49717679999999}, "_id": "57cf75cea73e494d8675ec6f", "name": "Urban Outfitters", "address": {"city": "Ithaca", "state": "NY", "street number": "131", "zip": "14850", "street name": "East Green Street"}}, {"category": ["travel_agency", "restaurant", "food", "point_of_interest", "establishment"], "geocode": {"lat": 42.441925, "lng": -76.511571}, "_id": "57cf75cea73e494d8675ec70", "name": "Cayuga Lake Cruises Inc", "address": {"city": "Ithaca", "state": "NY", "street number": "708", "zip": "14850", "street name": "West Buffalo Street"}}, {"category": ["car_repair", "store", "point_of_interest", "establishment"], "geocode": {"lat": 42.595242, "lng": -76.17963499999999}, "_id": "57cf75cea73e494d8675ec71", "name": "NAPA Auto Parts - Kellogg Auto Supply", "address": {"city": "Cortland", "state": "NY", "street number": "161", "zip": "13045", "street name": "Main Street"}}, {"category": ["bar", "restaurant", "food", "point_of_interest", "establishment"], "geocode": {"lat": 42.44576799999999, "lng": -76.512604}, "_id": "57cf75cea73e494d8675ec72", "name": "The Boatyard Grill", "address": {"city": "Ithaca", "state": "NY", "street number": "525", "zip": "14850", "street name": "Old Taughannock Boulevard"}}, {"category": ["meal_takeaway", "restaurant", "food", "point_of_interest", "establishment"], "geocode": {"lat": 42.57115, "lng": -76.21572379999999}, "_id": "57cf75cea73e494d8675ec73", "name": "Little Caesars Pizza", "address": {"city": "Cortland", "state": "NY", "street number": "854", "zip": "13045", "street name": "New York 13"}}, {"category": ["real_estate_agency", "store", "point_of_interest", "establishment"], "geocode": {"lat": 42.4376299, "lng": -76.4958444}, "_id": "57cf75cea73e494d8675ec74", "name": "Ithaca Renting Company", "address": {"city": "Ithaca", "state": "NY", "street number": "118", "zip": "14850", "street name": "Prospect Street"}}, {"category": ["meal_takeaway", "restaurant", "food", "point_of_interest", "establishment"], "geocode": {"lat": 42.439523, "lng": -76.505202}, "_id": "57cf75cea73e494d8675ec75", "name": "The State Diner", "address": {"city": "Ithaca", "state": "NY", "street number": "428", "zip": "14850", "street name": "West State Street"}}, {"category": ["store", "point_of_interest", "establishment"], "geocode": {"lat": 42.29421749999999, "lng": -76.7142015}, "_id": "57cf75cea73e494d8675ec76", "name": "Ithaca Harley-Davidson Inc.", "address": {"city": "Cayuta", "state": "NY", "street number": "6033", "zip": "14824", "street name": "State Highway 13"}}, {"category": ["department_store", "shoe_store", "jewelry_store", "clothing_store", "home_goods_store", "store", "point_of_interest", "establishment"], "geocode": {"lat": 42.570517, "lng": -76.216359}, "_id": "57cf75cea73e494d8675ec77", "name": "JCPenney", "address": {"city": "Cortland", "state": "NY", "street number": "854", "zip": "13045", "street name": "New York 13"}}, {"category": ["bar", "night_club", "restaurant", "food", "point_of_interest", "establishment"], "geocode": {"lat": 42.45145489999999, "lng": -76.5051257}, "_id": "57cf75cea73e494d8675ec78", "name": "The Haunt", "address": {"city": "Ithaca", "state": "NY", "street number": "702", "zip": "14850", "street name": "Willow Avenue"}}, {"category": ["restaurant", "bar", "food", "point_of_interest", "establishment"], "geocode": {"lat": 42.4383519, "lng": -76.4649376}, "_id": "57cf75cea73e494d8675ec79", "name": "Agava Restaurant", "address": {"city": "Ithaca", "state": "NY", "street number": "381", "zip": "14850", "street name": "Pine Tree Road"}}, {"category": ["food", "point_of_interest", "establishment"], "geocode": {"lat": 42.6166671, "lng": -76.9439525}, "_id": "57cf75cea73e494d8675ec7a", "name": "Miles Wine Cellars", "address": {"city": "Himrod", "state": "NY", "street number": "168", "zip": "14842", "street name": "Randall Crossing Road"}}, {"category": ["department_store", "jewelry_store", "clothing_store", "store", "point_of_interest", "establishment"], "geocode": {"lat": 42.4290536, "lng": -76.5103554}, "_id": "57cf75cea73e494d8675ec7b", "name": "T.J. Maxx", "address": {"city": "Ithaca", "state": "NY", "street number": "744", "zip": "14850", "street name": "South Meadow Street"}}, {"category": ["lodging", "restaurant", "food", "point_of_interest", "establishment"], "geocode": {"lat": 42.500105, "lng": -76.9238448}, "_id": "57cf75cea73e494d8675ec7c", "name": "Glenora Wine Cellars", "address": {"city": "Dundee", "state": "NY", "street number": "5435", "zip": "14837", "street name": "New York 14"}}, {"category": ["bar", "restaurant", "food", "point_of_interest", "establishment"], "geocode": {"lat": 42.4794768, "lng": -76.4776753}, "_id": "57cf75cea73e494d8675ec7d", "name": "Northeast Pizza & Beer Co", "address": {"city": "Ithaca", "state": "NY", "street number": "23", "zip": "14850", "street name": "Cinema Drive"}}, {"category": ["bakery", "cafe", "food", "store", "point_of_interest", "establishment"], "geocode": {"lat": 42.4406245, "lng": -76.4955133}, "_id": "57cf75cea73e494d8675ec7e", "name": "Collegetown Bagels", "address": {"city": "Ithaca", "state": "NY", "street number": "203", "zip": "14850", "street name": "North Aurora Street"}}, {"category": ["pharmacy", "health", "store", "point_of_interest", "establishment"], "geocode": {"lat": 42.43636799999999, "lng": -76.5071368}, "_id": "57cf75cea73e494d8675ec7f", "name": "CVS Pharmacy", "address": {"city": "Ithaca", "state": "NY", "street number": "625", "zip": "14850", "street name": "West Clinton Street"}}, {"category": ["restaurant", "food", "point_of_interest", "establishment"], "geocode": {"lat": 42.6081868, "lng": -76.1687292}, "_id": "57cf75cea73e494d8675ec80", "name": "Subway", "address": {"city": "Cortland", "state": "NY", "street number": "168", "zip": "13045", "street name": "Clinton Avenue"}}, {"category": ["restaurant", "food", "point_of_interest", "establishment"], "geocode": {"lat": 42.2931871, "lng": -76.7143284}, "_id": "57cf75cea73e494d8675ec81", "name": "Subway", "address": {"city": "Cayuta", "state": "NY", "street number": "6034", "zip": "14824", "street name": "New York 13"}}, {"category": ["department_store", "electronics_store", "home_goods_store", "store", "point_of_interest", "establishment"], "geocode": {"lat": 42.427536, "lng": -76.5140321}, "_id": "57cf75cea73e494d8675ec82", "name": "Walmart Photo Center", "address": {"city": "Ithaca", "state": "NY", "street number": "135", "zip": "14850", "street name": "Fairgrounds Memorial Parkway"}}, {"category": ["restaurant", "food", "point_of_interest", "establishment"], "geocode": {"lat": 42.18852809999999, "lng": -76.7920731}, "_id": "57cf75cea73e494d8675ec83", "name": "Subway", "address": {"city": "Horseheads", "state": "NY", "street number": "482", "zip": "14845", "street name": "Old Ithaca Road"}}, {"category": ["florist", "food", "home_goods_store", "store", "point_of_interest", "establishment"], "geocode": {"lat": 42.46872630000001, "lng": -76.47960290000002}, "_id": "57cf75cea73e494d8675ec84", "name": "Flower Fashions by Haring", "address": {"city": "Ithaca", "state": "NY", "street number": "903", "zip": "14850", "street name": "Hanshaw Road"}}, {"category": ["bakery", "cafe", "food", "store", "point_of_interest", "establishment"], "geocode": {"lat": 42.4423606, "lng": -76.4850055}, "_id": "57cf75cea73e494d8675ec85", "name": "Collegetown Bagels", "address": {"city": "Ithaca", "state": "NY", "street number": "415", "zip": "14850", "street name": "College Avenue"}}, {"category": ["store", "point_of_interest", "establishment"], "geocode": {"lat": 42.5180477, "lng": -76.5030575}, "_id": "57cf75cea73e494d8675ec86", "name": "Instant Replay Sports", "address": {"city": "Ithaca", "state": "NY", "street number": "1767", "zip": "14850", "street name": "East Shore Drive"}}, {"category": ["restaurant", "food", "point_of_interest", "establishment"], "geocode": {"lat": 42.15697290000001, "lng": -76.8261741}, "_id": "57cf75cea73e494d8675ec87", "name": "Subway", "address": {"city": "Horseheads", "state": "NY", "street number": "1020", "zip": "14845", "street name": "Center Street"}}, {"category": ["food", "store", "point_of_interest", "establishment"], "geocode": {"lat": 42.4407363, "lng": -76.497333}, "_id": "57cf75cea73e494d8675ec88", "name": "Sarah's Patisserie - Seneca Place", "address": {"city": "Ithaca", "state": "NY", "street number": "130", "zip": "14850", "street name": "East Seneca Street"}}, {"category": ["health", "store", "point_of_interest", "establishment"], "geocode": {"lat": 42.429044, "lng": -76.50865}, "_id": "57cf75cea73e494d8675ec89", "name": "America's Best Contacts & Eyeglasses", "address": {"city": "Ithaca", "state": "NY", "street number": "748", "zip": "14850", "street name": "South Meadow Street"}}, {"category": ["food", "point_of_interest", "establishment"], "geocode": {"lat": 42.51059, "lng": -76.876035}, "_id": "57cf75cea73e494d8675ec8a", "name": "Hazlitt 1852 Vineyards", "address": {"city": "Hector", "state": "NY", "street number": "5712", "zip": "14841", "street name": "New York 414"}}, {"category": ["moving_company", "storage", "store", "point_of_interest", "establishment"], "geocode": {"lat": 42.4239724, "lng": -76.51404649999999}, "_id": "57cf75cea73e494d8675ec8b", "name": "U-Haul of Ithaca", "address": {"city": "Ithaca", "state": "NY", "street number": "343", "zip": "14850", "street name": "Elmira Road"}}, {"category": ["electronics_store", "store", "point_of_interest", "establishment"], "geocode": {"lat": 42.6035478, "lng": -76.20040120000002}, "_id": "57cf75cea73e494d8675ec8c", "name": "AT&T Authorized Retailer", "address": {"city": "Cortland", "state": "NY", "street number": "4066", "zip": "13045", "street name": "West Road"}}, {"category": ["book_store", "cafe", "electronics_store", "food", "clothing_store", "store", "point_of_interest", "establishment"], "geocode": {"lat": 42.44673390000001, "lng": -76.4846493}, "_id": "57cf75cea73e494d8675ec8d", "name": "The Cornell Store", "address": {"city": "Ithaca", "state": "NY", "street number": "135", "zip": "14853", "street name": "Ho Plaza"}}, {"category": ["department_store", "electronics_store", "grocery_or_supermarket", "food", "store", "point_of_interest", "establishment"], "geocode": {"lat": 42.569011, "lng": -76.218215}, "_id": "57cf75cea73e494d8675ec8e", "name": "Walmart Supercenter", "address": {"city": "Cortland", "state": "NY", "street number": "819", "zip": "13045", "street name": "Bennie Rd"}}, {"category": ["lodging", "restaurant", "food", "point_of_interest", "establishment"], "geocode": {"lat": 42.5866432, "lng": -76.4938671}, "_id": "57cf75cea73e494d8675ec8f", "name": "John Joseph Inn and Elizabeth Restaurant", "address": {"street name": "Auburn Road", "state": "NY", "street number": "813", "zip": "13073"}}, {"category": ["bakery", "cafe", "meal_takeaway", "restaurant", "food", "store", "point_of_interest", "establishment"], "geocode": {"lat": 42.4799426, "lng": -76.4815737}, "_id": "57cf75cea73e494d8675ec90", "name": "Ithaca Bakery", "address": {"city": "Ithaca", "state": "NY", "street number": "2255", "zip": "14850", "street name": "North Triphammer Road"}}, {"category": ["bar", "restaurant", "food", "point_of_interest", "establishment"], "geocode": {"lat": 42.1597257, "lng": -76.8558606}, "_id": "57cf75cea73e494d8675ec91", "name": "Texas Roadhouse", "address": {"city": "Horseheads", "state": "NY", "street number": "1750", "zip": "14845", "street name": "County Road 64"}}, {"category": ["bar", "restaurant", "food", "point_of_interest", "establishment"], "geocode": {"lat": 42.4395, "lng": -76.495914}, "_id": "57cf75cea73e494d8675ec92", "name": "Madeline's", "address": {"city": "Ithaca", "state": "NY", "street number": "215", "zip": "14850", "street name": "East State Street"}}, {"category": ["pharmacy", "health", "store", "point_of_interest", "establishment"], "geocode": {"lat": 42.47935419999999, "lng": -76.48191039999999}, "_id": "57cf75cea73e494d8675ec93", "name": "Kinney Drugs", "address": {"city": "Ithaca", "state": "NY", "street number": "2255", "zip": "14850", "street name": "North Triphammer Road"}}, {"category": ["food", "store", "point_of_interest", "establishment"], "geocode": {"lat": 42.4301255, "lng": -76.5085308}, "_id": "57cf75cea73e494d8675ec94", "name": "Yogurtland Ithaca", "address": {"city": "Ithaca", "state": "NY", "street number": "740", "zip": "14850", "street name": "South Meadow Street"}}, {"category": ["food", "point_of_interest", "establishment"], "geocode": {"lat": 42.5550787, "lng": -76.86607219999999}, "_id": "57cf75cea73e494d8675ec95", "name": "Shalestone Vineyards", "address": {"city": "Hector", "state": "NY", "street number": "9681", "zip": "14841", "street name": "New York 414"}}, {"category": ["food", "point_of_interest", "establishment"], "geocode": {"lat": 42.575924, "lng": -76.677017}, "_id": "57cf75cea73e494d8675ec96", "name": "Americana Vineyards Winery", "address": {"city": "Interlaken", "state": "NY", "street number": "4367", "zip": "14847", "street name": "East Covert Road"}}, {"category": ["grocery_or_supermarket", "food", "store", "point_of_interest", "establishment"], "geocode": {"lat": 42.435647, "lng": -76.510595}, "_id": "57cf75cea73e494d8675ec97", "name": "Wegmans", "address": {"city": "Ithaca", "state": "NY", "street number": "500", "zip": "14850", "street name": "South Meadow Street"}}, {"category": ["home_goods_store", "store", "point_of_interest", "establishment"], "geocode": {"lat": 42.60816639999999, "lng": -76.17069959999999}, "_id": "57cf75cea73e494d8675ec98", "name": "Jo-Ann Fabrics and Crafts", "address": {"city": "Cortland", "state": "NY", "street number": "162", "zip": "13045", "street name": "Clinton Avenue"}}, {"category": ["department_store", "electronics_store", "grocery_or_supermarket", "food", "store", "point_of_interest", "establishment"], "geocode": {"lat": 42.1568225, "lng": -76.8540245}, "_id": "57cf75cea73e494d8675ec99", "name": "Walmart Supercenter", "address": {"city": "Horseheads", "state": "NY", "street number": "1400", "zip": "14845", "street name": "County Road 64"}}, {"category": ["restaurant", "food", "point_of_interest", "establishment"], "geocode": {"lat": 42.4300525, "lng": -76.5082081}, "_id": "57cf75cea73e494d8675ec9a", "name": "Chipotle Mexican Grill", "address": {"city": "Ithaca", "state": "NY", "street number": "740", "zip": "14850", "street name": "South Meadow Street"}}, {"category": ["hardware_store", "home_goods_store", "store", "point_of_interest", "establishment"], "geocode": {"lat": 42.48001920000001, "lng": -76.48085209999999}, "_id": "57cf75cea73e494d8675ec9b", "name": "Ace Hardware of Ithaca", "address": {"city": "Ithaca", "state": "NY", "street number": "2255", "zip": "14850", "street name": "North Triphammer Road"}}, {"category": ["store", "point_of_interest", "establishment"], "geocode": {"lat": 42.47999799999999, "lng": -76.48118199999999}, "_id": "57cf75cea73e494d8675ec9c", "name": "Advantage Sport & Fitness", "address": {"city": "Ithaca", "state": "NY", "street number": "2255", "zip": "14850", "street name": "North Triphammer Road"}}, {"category": ["restaurant", "food", "point_of_interest", "establishment"], "geocode": {"lat": 42.5990155, "lng": -76.1806244}, "_id": "57cf75cea73e494d8675ec9d", "name": "Subway", "address": {"city": "Cortland", "state": "NY", "street number": "64", "zip": "13045", "street name": "Main Street"}}, {"category": ["bar", "restaurant", "food", "point_of_interest", "establishment"], "geocode": {"lat": 42.4801019, "lng": -76.4808053}, "_id": "57cf75cea73e494d8675ec9e", "name": "The Rose", "address": {"city": "Ithaca", "state": "NY", "street number": "2255", "zip": "14850", "street name": "North Triphammer Road"}}, {"category": ["restaurant", "food", "point_of_interest", "establishment"], "geocode": {"lat": 42.7651455, "lng": -76.78271}, "_id": "57cf75cea73e494d8675ec9f", "name": "Knapp Winery & Vineyard Restaurant", "address": {"city": "Romulus", "state": "NY", "street number": "2770", "zip": "14541", "street name": "Ernsberger Road"}}, {"category": ["food", "point_of_interest", "establishment"], "geocode": {"lat": 42.816413, "lng": -76.16612289999999}, "_id": "57cf75cea73e494d8675eca0", "name": "Woodmansee Farms", "address": {"city": "Tully", "state": "NY", "street number": "915", "zip": "13159", "street name": "Woodmancy Road"}}, {"category": ["beauty_salon", "clothing_store", "store", "point_of_interest", "establishment"], "geocode": {"lat": 42.4387603, "lng": -76.4987482}, "_id": "57cf75cea73e494d8675eca1", "name": "Gia's Elite Style", "address": {"city": "Ithaca", "state": "NY", "street number": "121", "zip": "14850", "street name": "South Cayuga Street"}}, {"category": ["restaurant", "food", "point_of_interest", "establishment"], "geocode": {"lat": 42.4620526, "lng": -76.4223252}, "_id": "57cf75cea73e494d8675eca2", "name": "Antlers", "address": {"city": "Ithaca", "state": "NY", "street number": "1159", "zip": "14850", "street name": "Dryden Rd"}}, {"category": ["home_goods_store", "store", "point_of_interest", "establishment"], "geocode": {"lat": 42.439297, "lng": -76.496965}, "_id": "57cf75cea73e494d8675eca3", "name": "One World Market", "address": {"city": "Ithaca", "state": "NY", "street number": "171", "zip": "14850", "street name": "East State Street"}}, {"category": ["bar", "food", "store", "point_of_interest", "establishment"], "geocode": {"lat": 42.75862099999999, "lng": -76.775038}, "_id": "57cf75cea73e494d8675eca4", "name": "Goose Watch Winery", "address": {"city": "Romulus", "state": "NY", "street number": "5480", "zip": "14541", "street name": "New York 89"}}, {"category": ["bar", "restaurant", "food", "point_of_interest", "establishment"], "geocode": {"lat": 42.50153290000001, "lng": -76.8667753}, "_id": "57cf75cea73e494d8675eca5", "name": "Red Newt Cellars Winery and Bistro", "address": {"city": "Hector", "state": "NY", "street number": "3675", "zip": "14841", "street name": "Tichenor Road"}}, {"category": ["clothing_store", "store", "point_of_interest", "establishment"], "geocode": {"lat": 42.15419989999999, "lng": -76.8850649}, "_id": "57cf75cea73e494d8675eca6", "name": "Fashion Bug", "address": {"city": "Elmira", "state": "NY", "zip": "14903", "street name": "County Road 64"}}, {"category": ["meal_delivery", "bar", "restaurant", "food", "point_of_interest", "establishment"], "geocode": {"lat": 42.441788, "lng": -76.485979}, "_id": "57cf75cea73e494d8675eca7", "name": "Jack's Grill", "address": {"city": "Ithaca", "state": "NY", "street number": "120", "zip": "14850", "street name": "Dryden Road"}}, {"category": ["pharmacy", "department_store", "health", "store", "point_of_interest", "establishment"], "geocode": {"lat": 42.5538329, "lng": -76.205691}, "_id": "57cf75cea73e494d8675eca8", "name": "Walmart Pharmacy", "address": {"city": "Cortland", "state": "NY", "street number": "819", "zip": "13045", "street name": "Bennie Road"}}, {"category": ["restaurant", "food", "point_of_interest", "establishment"], "geocode": {"lat": 42.4285496, "lng": -76.497438}, "_id": "57cf75cea73e494d8675eca9", "name": "Rogan's Corner", "address": {"city": "Ithaca", "state": "NY", "street number": "825", "zip": "14850", "street name": "Danby Road"}}, {"category": ["car_dealer", "car_repair", "store", "point_of_interest", "establishment"], "geocode": {"lat": 42.4364493, "lng": -76.4993372}, "_id": "57cf75cea73e494d8675ecaa", "name": "Pritchard Automotive", "address": {"city": "Ithaca", "state": "NY", "street number": "304", "zip": "14850", "street name": "South Cayuga Street"}}, {"category": ["bakery", "cafe", "meal_takeaway", "restaurant", "food", "store", "point_of_interest", "establishment"], "geocode": {"lat": 42.42907599999999, "lng": -76.508304}, "_id": "57cf75cea73e494d8675ecab", "name": "Panera Bread", "address": {"city": "Ithaca", "state": "NY", "street number": "748", "zip": "14850", "street name": "South Meadow Street"}}, {"category": ["bar", "restaurant", "food", "point_of_interest", "establishment"], "geocode": {"lat": 42.43909499999999, "lng": -76.51023099999999}, "_id": "57cf75cea73e494d8675ecac", "name": "Maxie's Supper Club & Oyster Bar", "address": {"city": "Ithaca", "state": "NY", "street number": "635", "zip": "14850", "street name": "West State Street"}}, {"category": ["cafe", "lodging", "food", "point_of_interest", "establishment"], "geocode": {"lat": 42.62023759999999, "lng": -76.7246285}, "_id": "57cf75cea73e494d8675ecad", "name": "Glass Magnolia Bed and Breakfast", "address": {"city": "Interlaken", "state": "NY", "street number": "8339", "zip": "14847", "street name": "North Main Street"}}, {"category": ["restaurant", "food", "point_of_interest", "establishment"], "geocode": {"lat": 42.4445486, "lng": -76.5083425}, "_id": "57cf75cea73e494d8675ecae", "name": "Zaza's Cucina", "address": {"city": "Ithaca", "state": "NY", "street number": "622", "zip": "14850", "street name": "Cascadilla Street"}}, {"category": ["grocery_or_supermarket", "food", "store", "point_of_interest", "establishment"], "geocode": {"lat": 42.5757711, "lng": -76.214545}, "_id": "57cf75cea73e494d8675ecaf", "name": "ALDI", "address": {"city": "Cortland", "state": "NY", "street number": "393", "zip": "13045", "street name": "Tompkins Street"}}, {"category": ["liquor_store", "food", "store", "point_of_interest", "establishment"], "geocode": {"lat": 42.4300113, "lng": -76.50677999999999}, "_id": "57cf75cea73e494d8675ecb0", "name": "Northside Wine & Spirits", "address": {"city": "Ithaca", "state": "NY", "street number": "222", "zip": "14850", "street name": "Elmira Road"}}, {"category": ["restaurant", "food", "point_of_interest", "establishment"], "geocode": {"lat": 42.4346027, "lng": -76.50786409999999}, "_id": "57cf75cea73e494d8675ecb1", "name": "Royal Court Restaurant", "address": {"city": "Ithaca", "state": "NY", "street number": "529", "zip": "14850", "street name": "South Meadow Street"}}, {"category": ["jewelry_store", "store", "point_of_interest", "establishment"], "geocode": {"lat": 42.48371849999999, "lng": -76.4910616}, "_id": "57cf75cea73e494d8675ecb2", "name": "Pandora Jewelry Store", "address": {"city": "Ithaca", "state": "NY", "street number": "40", "zip": "14850", "street name": "Catherwood Road"}}, {"category": ["store", "point_of_interest", "establishment"], "geocode": {"lat": 42.43247400000001, "lng": -76.510407}, "_id": "57cf75cea73e494d8675ecb3", "name": "Michaels", "address": {"city": "Ithaca", "state": "NY", "street number": "614", "zip": "14850", "street name": "South Meadow Street"}}, {"category": ["restaurant", "food", "point_of_interest", "establishment"], "geocode": {"lat": 42.4376988, "lng": -76.4635742}, "_id": "57cf75cea73e494d8675ecb4", "name": "Subway", "address": {"city": "Ithaca", "state": "NY", "street number": "325", "zip": "14850", "street name": "Pine Tree Road"}}, {"category": ["shoe_store", "health", "store", "point_of_interest", "establishment"], "geocode": {"lat": 42.4298628, "lng": -76.50652939999999}, "_id": "57cf75cea73e494d8675ecb5", "name": "Cobbler's Cottage", "address": {"city": "Ithaca", "state": "NY", "street number": "222", "zip": "14850", "street name": "Elmira Road"}}, {"category": ["cafe", "restaurant", "food", "point_of_interest", "establishment"], "geocode": {"lat": 42.441992, "lng": -76.489634}, "_id": "57cf75cea73e494d8675ecb6", "name": "Carriage House Cafe", "address": {"city": "Ithaca", "state": "NY", "street number": "305", "zip": "14850", "street name": "Stewart Avenue"}}, {"category": ["food", "point_of_interest", "establishment"], "geocode": {"lat": 42.57479590000001, "lng": -77.036755}, "_id": "57cf75cea73e494d8675ecb7", "name": "The Windmill Farm & Craft Market", "address": {"city": "Penn Yan", "state": "NY", "street number": "3900", "zip": "14527", "street name": "New York 14A"}}, {"category": ["restaurant", "food", "point_of_interest", "establishment"], "geocode": {"lat": 42.439177, "lng": -76.493399}, "_id": "57cf75cea73e494d8675ecb8", "name": "Sticky Rice Thai & Laotian Cuisine", "address": {"city": "Ithaca", "state": "NY", "street number": "401", "zip": "14850", "street name": "East State Street"}}, {"category": ["department_store", "grocery_or_supermarket", "food", "store", "point_of_interest", "establishment"], "geocode": {"lat": 42.5961173, "lng": -76.2028249}, "_id": "57cf75cea73e494d8675ecb9", "name": "TOPS Friendly Markets", "address": {"city": "Cortland", "state": "NY", "street number": "3932", "zip": "13045", "street name": "New York 281"}}, {"category": ["restaurant", "food", "point_of_interest", "establishment"], "geocode": {"lat": 42.4464908, "lng": -76.48222620000001}, "_id": "57cf75cea73e494d8675ecba", "name": "Taverna Banfi", "address": {"city": "Ithaca", "state": "NY", "street number": "130", "zip": "14853", "street name": "Statler Drive"}}, {"category": ["pharmacy", "convenience_store", "health", "food", "store", "point_of_interest", "establishment"], "geocode": {"lat": 42.4332983, "lng": -76.5075322}, "_id": "57cf75cea73e494d8675ecbb", "name": "Rite Aid Pharmacy", "address": {"city": "Ithaca", "state": "NY", "street number": "615", "zip": "14850", "street name": "South Meadow Street"}}, {"category": ["restaurant", "food", "point_of_interest", "establishment"], "geocode": {"lat": 42.439799, "lng": -76.495958}, "_id": "57cf75cea73e494d8675ecbc", "name": "Subway", "address": {"city": "Ithaca", "state": "NY", "street number": "220", "zip": "14850", "street name": "East State Street"}}, {"category": ["furniture_store", "home_goods_store", "store", "point_of_interest", "establishment"], "geocode": {"lat": 42.776563, "lng": -76.707696}, "_id": "57cf75cea73e494d8675ecbd", "name": "MacKenzie-Childs", "address": {"city": "Aurora", "state": "NY", "street number": "3260", "zip": "13026", "street name": "State Route 90"}}, {"category": ["car_repair", "store", "point_of_interest", "establishment"], "geocode": {"lat": 42.43970699999999, "lng": -76.505027}, "_id": "57cf75cea73e494d8675ecbe", "name": "NAPA Auto Parts - Tioga Auto Parts", "address": {"city": "Ithaca", "state": "NY", "street number": "424", "zip": "14850", "street name": "West State Street"}}, {"category": ["restaurant", "food", "point_of_interest", "establishment"], "geocode": {"lat": 42.09597, "lng": -76.2329139}, "_id": "57cf75cea73e494d8675ecbf", "name": "River's Edge Restaurant", "address": {"city": "Owego", "state": "NY", "street number": "1100", "zip": "13827", "street name": "New York 17C"}}, {"category": ["food", "clothing_store", "store", "point_of_interest", "establishment"], "geocode": {"lat": 42.6825539, "lng": -76.62108409999999}, "_id": "57cf75cea73e494d8675ecc0", "name": "Purple Dog Lavender Farm", "address": {"city": "King Ferry", "state": "NY", "street number": "1321", "zip": "13081", "street name": "New York 34B"}}, {"category": ["restaurant", "food", "point_of_interest", "establishment"], "geocode": {"lat": 42.44179139999999, "lng": -76.4876713}, "_id": "57cf75cea73e494d8675ecc1", "name": "Four Seasons", "address": {"city": "Ithaca", "state": "NY", "street number": "404", "zip": "14850", "street name": "Eddy Street"}}, {"category": ["cafe", "food", "store", "point_of_interest", "establishment"], "geocode": {"lat": 42.4444581, "lng": -76.49950989999999}, "_id": "57cf75cea73e494d8675ecc2", "name": "Gimme! Coffee", "address": {"city": "Ithaca", "state": "NY", "street number": "430", "zip": "14850", "street name": "North Cayuga Street"}}, {"category": ["store", "point_of_interest", "establishment"], "geocode": {"lat": 42.483327, "lng": -76.490933}, "_id": "57cf75cea73e494d8675ecc3", "name": "Dasan-J Beauty Supply", "address": {"city": "Ithaca", "state": "NY", "street number": "40", "zip": "14850", "street name": "Catherwood Road"}}, {"category": ["car_repair", "store", "point_of_interest", "establishment"], "geocode": {"lat": 42.5422871, "lng": -76.6620804}, "_id": "57cf75cea73e494d8675ecc4", "name": "NAPA Auto Parts - Trumansburg Auto Parts", "address": {"city": "Trumansburg", "state": "NY", "street number": "1", "zip": "14886", "street name": "East Main Street"}}, {"category": ["food", "point_of_interest", "establishment"], "geocode": {"lat": 42.57663180000001, "lng": -76.8584529}, "_id": "57cf75cea73e494d8675ecc5", "name": "Lamoreaux Landing Wine Cellars", "address": {"city": "Lodi", "state": "NY", "street number": "9224", "zip": "14860", "street name": "New York 414"}}, {"category": ["restaurant", "food", "point_of_interest", "establishment"], "geocode": {"lat": 42.48772899999999, "lng": -76.489054}, "_id": "57cf75cea73e494d8675ecc6", "name": "Ciao", "address": {"city": "Ithaca", "state": "NY", "street number": "2", "zip": "14850", "street name": "Hickory Hollow Lane"}}, {"category": ["pharmacy", "health", "store", "point_of_interest", "establishment"], "geocode": {"lat": 42.483327, "lng": -76.490933}, "_id": "57cf75cea73e494d8675ecc7", "name": "Joseph W. Decker Jr, RPH", "address": {"city": "Ithaca", "state": "NY", "street number": "40", "zip": "14850", "street name": "Catherwood Road"}}, {"category": ["pharmacy", "health", "store", "point_of_interest", "establishment"], "geocode": {"lat": 42.483327, "lng": -76.490933}, "_id": "57cf75cea73e494d8675ecc8", "name": "Andrew T. Cowan, PharmD", "address": {"city": "Ithaca", "state": "NY", "street number": "40", "zip": "14850", "street name": "Catherwood Road"}}, {"category": ["pharmacy", "health", "store", "point_of_interest", "establishment"], "geocode": {"lat": 42.483327, "lng": -76.490933}, "_id": "57cf75cea73e494d8675ecc9", "name": "Sarah J. Upton, PharmD", "address": {"city": "Ithaca", "state": "NY", "street number": "40", "zip": "14850", "street name": "Catherwood Road"}}, {"category": ["store", "point_of_interest", "establishment"], "geocode": {"lat": 42.483327, "lng": -76.490933}, "_id": "57cf75cea73e494d8675ecca", "name": "Pimpis Collection", "address": {"city": "Ithaca", "state": "NY", "street number": "40", "zip": "14850", "street name": "Catherwood Road"}}, {"category": ["store", "point_of_interest", "establishment"], "geocode": {"lat": 42.1969978, "lng": -76.2468107}, "_id": "57cf75cea73e494d8675eccb", "name": "Weltonville Store", "address": {"city": "Newark Valley", "state": "NY", "street number": "2683", "zip": "13811", "street name": "West Creek Road"}}, {"category": ["gas_station", "atm", "convenience_store", "food", "finance", "store", "point_of_interest", "establishment"], "geocode": {"lat": 42.438395, "lng": -76.4993559}, "_id": "57cf75cea73e494d8675eccc", "name": "Sunoco Gas Station", "address": {"city": "Ithaca", "state": "NY", "street number": "210", "zip": "14850", "street name": "South Cayuga Street"}}, {"category": ["electronics_store", "car_repair", "store", "point_of_interest", "establishment"], "geocode": {"lat": 42.1415779, "lng": -76.8146361}, "_id": "57cf75cea73e494d8675eccd", "name": "Benchmark Audio", "address": {"city": "Horseheads", "state": "NY", "street number": "3139", "zip": "14845", "street name": "Lake Road"}}, {"category": ["restaurant", "food", "point_of_interest", "establishment"], "geocode": {"lat": 42.0887014, "lng": -76.7924939}, "_id": "57cf75cea73e494d8675ecce", "name": "Anthony's Restaurant", "address": {"city": "Elmira", "state": "NY", "street number": "760", "zip": "14901", "street name": "East Water Street"}}, {"category": ["cafe", "bar", "restaurant", "food", "point_of_interest", "establishment"], "geocode": {"lat": 42.4407357, "lng": -76.49725389999999}, "_id": "57cf75cea73e494d8675eccf", "name": "Kilpatrick's", "address": {"city": "Ithaca", "state": "NY", "street number": "130", "zip": "14850", "street name": "East Seneca Street"}}, {"category": ["hardware_store", "store", "point_of_interest", "establishment"], "geocode": {"lat": 42.3677696, "lng": -76.8660855}, "_id": "57cf75cea73e494d8675ecd0", "name": "Watkins Glen Supply", "address": {"city": "Watkins Glen", "state": "NY", "street number": "2768", "zip": "14891", "street name": "New York 14"}}, {"category": ["food", "point_of_interest", "establishment"], "geocode": {"lat": 42.5843301, "lng": -76.6709255}, "_id": "57cf75cea73e494d8675ecd1", "name": "Bellwether Hard Cider and Wine Cellars", "address": {"city": "Trumansburg", "state": "NY", "street number": "9070", "zip": "14886", "street name": "New York 89"}}, {"category": ["car_repair", "store", "point_of_interest", "establishment"], "geocode": {"lat": 42.467498, "lng": -76.41321099999999}, "_id": "57cf75cea73e494d8675ecd2", "name": "Autoworks", "address": {"city": "Ithaca", "state": "NY", "street number": "1278", "zip": "14850", "street name": "Dryden Road"}}, {"category": ["car_repair", "store", "point_of_interest", "establishment"], "geocode": {"lat": 42.4232403, "lng": -76.5159738}, "_id": "57cf75cea73e494d8675ecd3", "name": "Tallmadge Tire and Auto Service", "address": {"city": "Ithaca", "state": "NY", "street number": "358", "zip": "14850", "street name": "Elmira Road"}}, {"category": ["car_dealer", "car_repair", "store", "point_of_interest", "establishment"], "geocode": {"lat": 42.1256178, "lng": -76.80965450000001}, "_id": "57cf75cea73e494d8675ecd4", "name": "Rocky's Auto Sales", "address": {"city": "Elmira", "state": "NY", "street number": "2040", "zip": "14903", "street name": "Lake Road"}}, {"category": ["bar", "restaurant", "food", "point_of_interest", "establishment"], "geocode": {"lat": 42.481869, "lng": -76.485249}, "_id": "57cf75cea73e494d8675ecd5", "name": "Applebee's", "address": {"city": "Ithaca", "state": "NY", "street number": "2300", "zip": "14850", "street name": "North Triphammer Road"}}, {"category": ["restaurant", "food", "point_of_interest", "establishment"], "geocode": {"lat": 42.4377834, "lng": -76.4632893}, "_id": "57cf75cea73e494d8675ecd6", "name": "Wings Over", "address": {"city": "Ithaca", "state": "NY", "street number": "335", "zip": "14850", "street name": "Pine Tree Road"}}, {"category": ["restaurant", "food", "point_of_interest", "establishment"], "geocode": {"lat": 42.4847979, "lng": -76.4868989}, "_id": "57cf75cea73e494d8675ecd7", "name": "McDonald's", "address": {"city": "Ithaca", "state": "NY", "street number": "2350", "zip": "14850", "street name": "North Triphammer Road"}}, {"category": ["meal_delivery", "meal_takeaway", "restaurant", "food", "point_of_interest", "establishment"], "geocode": {"lat": 42.5995351, "lng": -76.17985829999999}, "_id": "57cf75cea73e494d8675ecd8", "name": "Domino's Pizza", "address": {"city": "Cortland", "state": "NY", "street number": "8", "zip": "13045", "street name": "Court Street"}}, {"category": ["restaurant", "food", "point_of_interest", "establishment"], "geocode": {"lat": 42.58701, "lng": -76.849975}, "_id": "57cf75cea73e494d8675ecd9", "name": "Suzanne Fine Regional Cuisine", "address": {"city": "Lodi", "state": "NY", "street number": "9013", "zip": "14860", "street name": "New York 414"}}, {"category": ["car_repair", "store", "point_of_interest", "establishment"], "geocode": {"lat": 42.49597660000001, "lng": -76.2974882}, "_id": "57cf75cea73e494d8675ecda", "name": "NAPA Auto Parts - Kellogg Auto Supply", "address": {"city": "Dryden", "state": "NY", "street number": "52 1/2", "zip": "13053", "street name": "North Street"}}, {"category": ["restaurant", "food", "point_of_interest", "establishment"], "geocode": {"lat": 42.6124042, "lng": -76.18614219999999}, "_id": "57cf75cea73e494d8675ecdb", "name": "Fabio's Italian Restaurant", "address": {"city": "Cortland", "state": "NY", "street number": "179", "zip": "13045", "street name": "Homer Avenue"}}, {"category": ["meal_delivery", "meal_takeaway", "restaurant", "food", "point_of_interest", "establishment"], "geocode": {"lat": 42.4481529, "lng": -76.5060117}, "_id": "57cf75cea73e494d8675ecdc", "name": "Papa John's Pizza", "address": {"city": "Ithaca", "state": "NY", "street number": "435", "zip": "14850", "street name": "Franklin Street"}}, {"category": ["food", "point_of_interest", "establishment"], "geocode": {"lat": 42.4601992, "lng": -76.86357749999999}, "_id": "57cf75cea73e494d8675ecdd", "name": "Finger Lakes Distilling", "address": {"city": "Burdett", "state": "NY", "street number": "4676", "zip": "14818", "street name": "New York 414"}}, {"category": ["meal_delivery", "meal_takeaway", "restaurant", "food", "point_of_interest", "establishment"], "geocode": {"lat": 42.4820828, "lng": -76.4836674}, "_id": "57cf75cea73e494d8675ecde", "name": "Pizza Hut", "address": {"city": "Ithaca", "state": "NY", "street number": "2301", "zip": "14850", "street name": "North Triphammer Road"}}, {"category": ["pharmacy", "convenience_store", "health", "food", "store", "point_of_interest", "establishment"], "geocode": {"lat": 42.49087919999999, "lng": -76.2965425}, "_id": "57cf75cea73e494d8675ecdf", "name": "Rite Aid Pharmacy", "address": {"city": "Dryden", "state": "NY", "zip": "13053"}}, {"category": ["food", "point_of_interest", "establishment"], "geocode": {"lat": 42.628589, "lng": -76.94891199999999}, "_id": "57cf75cea73e494d8675ece0", "name": "Torrey Ridge Winery", "address": {"city": "Penn Yan", "state": "NY", "street number": "2770", "zip": "14527", "street name": "New York 14"}}, {"category": ["meal_takeaway", "restaurant", "food", "point_of_interest", "establishment"], "geocode": {"lat": 42.5973611, "lng": -76.2044149}, "_id": "57cf75cea73e494d8675ece1", "name": "Little Caesars Pizza", "address": {"city": "Cortland", "state": "NY", "street number": "3940", "zip": "13045", "street name": "New York 281"}}, {"category": ["health", "store", "point_of_interest", "establishment"], "geocode": {"lat": 42.5690232, "lng": -76.2182681}, "_id": "57cf75cea73e494d8675ece2", "name": "Walmart Vision Center", "address": {"city": "Cortland", "state": "NY", "street number": "819", "zip": "13045", "street name": "Bennie Road"}}, {"category": ["furniture_store", "home_goods_store", "store", "point_of_interest", "establishment"], "geocode": {"lat": 42.4681508, "lng": -76.4100721}, "_id": "57cf75cea73e494d8675ece3", "name": "Tree Forms Amish Furniture", "address": {"city": "Ithaca", "state": "NY", "street number": "1302", "zip": "14850", "street name": "Dryden Road"}}, {"category": ["bar", "restaurant", "food", "point_of_interest", "establishment"], "geocode": {"lat": 42.46877519999999, "lng": -76.4799158}, "_id": "57cf75cea73e494d8675ece4", "name": "The Heights Restaurant and H Bar", "address": {"city": "Ithaca", "state": "NY", "street number": "903", "zip": "14850", "street name": "Hanshaw Road"}}, {"category": ["book_store", "store", "point_of_interest", "establishment"], "geocode": {"lat": 42.4222926, "lng": -76.49498670000001}, "_id": "57cf75cea73e494d8675ece5", "name": "Ithaca College Bookstore", "address": {"city": "Ithaca", "state": "NY", "street number": "140", "zip": "14850", "street name": "Phillips Hall"}}, {"category": ["restaurant", "food", "point_of_interest", "establishment"], "geocode": {"lat": 42.4411677, "lng": -76.5086212}, "_id": "57cf75cea73e494d8675ece6", "name": "Joe's Restaurant", "address": {"city": "Ithaca", "state": "NY", "street number": "602", "zip": "14850", "street name": "West Buffalo Street"}}, {"category": ["hardware_store", "furniture_store", "home_goods_store", "store", "point_of_interest", "establishment"], "geocode": {"lat": 42.4309678, "lng": -76.5135191}, "_id": "57cf75cea73e494d8675ece7", "name": "Lowe's Home Improvement", "address": {"city": "Ithaca", "state": "NY", "street number": "130", "zip": "14850", "street name": "Fairgrounds Memorial Parkway"}}, {"category": ["bar", "restaurant", "food", "point_of_interest", "establishment"], "geocode": {"lat": 42.452877, "lng": -76.497491}, "_id": "57cf75cea73e494d8675ece8", "name": "Northstar House", "address": {"city": "Ithaca", "state": "NY", "street number": "202", "zip": "14850", "street name": "East Falls Street"}}, {"category": ["store", "point_of_interest", "establishment"], "geocode": {"lat": 42.4396366, "lng": -76.50412469999999}, "_id": "57cf75cea73e494d8675ece9", "name": "Hand of Fate Tattoo Parlor", "address": {"city": "Ithaca", "state": "NY", "street number": "402", "zip": "14850", "street name": "West State Street"}}, {"category": ["restaurant", "food", "point_of_interest", "establishment"], "geocode": {"lat": 42.41960039999999, "lng": -76.519185}, "_id": "57cf75cea73e494d8675ecea", "name": "Subway", "address": {"city": "Ithaca", "state": "NY", "zip": "14850"}}, {"category": ["department_store", "pharmacy", "grocery_or_supermarket", "health", "food", "store", "point_of_interest", "establishment"], "geocode": {"lat": 42.0981285, "lng": -76.2321781}, "_id": "57cf75cea73e494d8675eceb", "name": "TOPS Friendly Markets", "address": {"city": "Owego", "state": "NY", "street number": "1145", "zip": "13827", "street name": "New York 17C"}}, {"category": ["general_contractor", "store", "point_of_interest", "establishment"], "geocode": {"lat": 42.50986919999999, "lng": -76.4919939}, "_id": "57cf75cea73e494d8675ecec", "name": "Cayuga Landscape Co", "address": {"city": "Ithaca", "state": "NY", "street number": "2712", "zip": "14850", "street name": "North Triphammer Road"}}, {"category": ["food", "point_of_interest", "establishment"], "geocode": {"lat": 42.4289349, "lng": -76.9060858}, "_id": "57cf75cea73e494d8675eced", "name": "Lakewood Vineyards Inc", "address": {"city": "Watkins Glen", "state": "NY", "street number": "4024", "zip": "14891", "street name": "New York 14"}}, {"category": ["cafe", "food", "point_of_interest", "establishment"], "geocode": {"lat": 42.43949010000001, "lng": -76.4974804}, "_id": "57cf75cea73e494d8675ecee", "name": "Mate' Factor Cafe", "address": {"city": "Ithaca", "state": "NY", "street number": "143", "zip": "14850", "street name": "East State Street"}}, {"category": ["car_dealer", "store", "point_of_interest", "establishment"], "geocode": {"lat": 42.594113, "lng": -76.207718}, "_id": "57cf75cea73e494d8675ecef", "name": "Sun Auto Warehouse of Cortland", "address": {"city": "Cortland", "state": "NY", "street number": "3870", "zip": "13045", "street name": "West Road"}}, {"category": ["restaurant", "food", "point_of_interest", "establishment"], "geocode": {"lat": 42.5973188, "lng": -76.2056094}, "_id": "57cf75cea73e494d8675ecf0", "name": "Subway", "address": {"city": "Cortland", "state": "NY", "street number": "3937", "zip": "13045", "street name": "West Road"}}, {"category": ["restaurant", "food", "point_of_interest", "establishment"], "geocode": {"lat": 42.4298965, "lng": -76.5063196}, "_id": "57cf75cea73e494d8675ecf1", "name": "Ling Ling Restaurant", "address": {"city": "Ithaca", "state": "NY", "street number": "222", "zip": "14850", "street name": "Elmira Road"}}, {"category": ["restaurant", "food", "point_of_interest", "establishment"], "geocode": {"lat": 42.4422159, "lng": -76.5136795}, "_id": "57cf75cea73e494d8675ecf2", "name": "Inlet Island Cafe", "address": {"city": "Ithaca", "state": "NY", "street number": "310", "zip": "14850", "street name": "Old Taughannock Boulevard"}}, {"category": ["restaurant", "food", "point_of_interest", "establishment"], "geocode": {"lat": 42.4994629, "lng": -76.2992271}, "_id": "57cf75cea73e494d8675ecf3", "name": "Subway", "address": {"city": "Dryden", "state": "NY", "street number": "11", "zip": "13053", "street name": "Ellis Drive"}}, {"category": ["cafe", "restaurant", "food", "point_of_interest", "establishment"], "geocode": {"lat": 42.4417414, "lng": -76.485919}, "_id": "57cf75cea73e494d8675ecf4", "name": "Cafe Pacific", "address": {"city": "Ithaca", "state": "NY", "street number": "114", "zip": "14850", "street name": "Dryden Road"}}, {"category": ["department_store", "store", "point_of_interest", "establishment"], "geocode": {"lat": 42.4202734, "lng": -76.5221882}, "_id": "57cf75cea73e494d8675ecf5", "name": "Kohl's Ithaca", "address": {"city": "Ithaca", "state": "NY", "street number": "410", "zip": "14850", "street name": "Elmira Road"}}, {"category": ["store", "point_of_interest", "establishment"], "geocode": {"lat": 42.5973154, "lng": -76.2019351}, "_id": "57cf75cea73e494d8675ecf6", "name": "Family Dollar", "address": {"city": "Cortland", "state": "NY", "street number": "231", "zip": "13045", "street name": "Groton Avenue"}}, {"category": ["bar", "restaurant", "food", "point_of_interest", "establishment"], "geocode": {"lat": 42.4422565, "lng": -76.4849855}, "_id": "57cf75cea73e494d8675ecf7", "name": "Rulloff's Restaurant and Bar", "address": {"city": "Ithaca", "state": "NY", "street number": "411", "zip": "14850", "street name": "College Avenue"}}, {"category": ["clothing_store", "store", "point_of_interest", "establishment"], "geocode": {"lat": 42.4410846, "lng": -76.498423}, "_id": "57cf75cea73e494d8675ecf8", "name": "Fabrics Boutique", "address": {"city": "Ithaca", "state": "NY", "street number": "215", "zip": "14850", "street name": "North Cayuga Street"}}, {"category": ["pharmacy", "health", "store", "point_of_interest", "establishment"], "geocode": {"lat": 42.43548550000001, "lng": -76.5109813}, "_id": "57cf75cea73e494d8675ecf9", "name": "Marsh Joanna M", "address": {"city": "Ithaca", "state": "NY", "street number": "500", "zip": "14850", "street name": "South Meadow Street"}}, {"category": ["furniture_store", "home_goods_store", "store", "point_of_interest", "establishment"], "geocode": {"lat": 42.1572083, "lng": -76.8276628}, "_id": "57cf75cea73e494d8675ecfa", "name": "Bargain Outlet", "address": {"city": "Horseheads", "state": "NY", "street number": "1020", "zip": "14845", "street name": "Center Street"}}, {"category": ["electronics_store", "store", "point_of_interest", "establishment"], "geocode": {"lat": 42.59870100000001, "lng": -76.162469}, "_id": "57cf75cea73e494d8675ecfb", "name": "Paragon Associate", "address": {"city": "Cortland", "state": "NY", "street number": "216", "zip": "13045", "street name": "Port Watson Street"}}, {"category": ["meal_delivery", "meal_takeaway", "restaurant", "food", "point_of_interest", "establishment"], "geocode": {"lat": 42.43906279999999, "lng": -76.4941683}, "_id": "57cf75cea73e494d8675ecfc", "name": "Domino's Pizza", "address": {"city": "Ithaca", "state": "NY", "street number": "311", "zip": "14850", "street name": "East Green Street"}}, {"category": ["car_dealer", "car_repair", "store", "point_of_interest", "establishment"], "geocode": {"lat": 42.42275230000001, "lng": -76.51790439999999}, "_id": "57cf75cea73e494d8675ecfd", "name": "Maguire Family of Dealerships", "address": {"city": "Ithaca", "state": "NY", "street number": "370", "zip": "14850", "street name": "Elmira Road"}}, {"category": ["liquor_store", "food", "store", "point_of_interest", "establishment"], "geocode": {"lat": 42.4378023, "lng": -76.4634907}, "_id": "57cf75cea73e494d8675ecfe", "name": "Judd Falls Wines & Spirits", "address": {"city": "Ithaca", "state": "NY", "street number": "319", "zip": "14850", "street name": "Pine Tree Road"}}, {"category": ["restaurant", "food", "point_of_interest", "establishment"], "geocode": {"lat": 42.5961163, "lng": -76.1930029}, "_id": "57cf75cea73e494d8675ecff", "name": "Subway", "address": {"city": "Cortland", "state": "NY", "street number": "15", "zip": "13045", "street name": "Neubig Road"}}, {"category": ["food", "point_of_interest", "establishment"], "geocode": {"lat": 42.695268, "lng": -76.742662}, "_id": "57cf75cea73e494d8675ed00", "name": "Thirsty Owl Wine Company", "address": {"city": "Ovid", "state": "NY", "street number": "6799", "zip": "14521", "street name": "Elm Beach Road"}}, {"category": ["restaurant", "food", "point_of_interest", "establishment"], "geocode": {"lat": 42.3777287, "lng": -76.8714849}, "_id": "57cf75cea73e494d8675ed01", "name": "Subway", "address": {"city": "Watkins Glen", "state": "NY", "street number": "800", "zip": "14891", "street name": "North Franklin Street"}}, {"category": ["grocery_or_supermarket", "health", "food", "store", "point_of_interest", "establishment"], "geocode": {"lat": 42.440585, "lng": -76.5110773}, "_id": "57cf75cea73e494d8675ed02", "name": "GreenStar Cooperative Market", "address": {"city": "Ithaca", "state": "NY", "street number": "701", "zip": "14850", "street name": "West Buffalo Street"}}, {"category": ["food", "point_of_interest", "establishment"], "geocode": {"lat": 42.47594389999999, "lng": -76.42953109999999}, "_id": "57cf75cea73e494d8675ed03", "name": "Taylor Rental Center of Ithaca", "address": {"city": "Ithaca", "state": "NY", "street number": "1779", "zip": "14850", "street name": "Hanshaw Road"}}, {"category": ["bar", "restaurant", "food", "point_of_interest", "establishment"], "geocode": {"lat": 42.4398726, "lng": -76.49587319999999}, "_id": "57cf75cea73e494d8675ed04", "name": "Simeon's On the Commons", "address": {"city": "Ithaca", "state": "NY", "street number": "224", "zip": "14850", "street name": "East State Street"}}, {"category": ["shoe_store", "store", "point_of_interest", "establishment"], "geocode": {"lat": 42.4684513, "lng": -76.48017229999999}, "_id": "57cf75cea73e494d8675ed05", "name": "Parakeet Feet Kids Shoes", "address": {"city": "Ithaca", "state": "NY", "street number": "903", "zip": "14850", "street name": "Hanshaw Road"}}, {"category": ["food", "point_of_interest", "establishment"], "geocode": {"lat": 42.5720217, "lng": -76.92809849999999}, "_id": "57cf75cea73e494d8675ed06", "name": "Hermann J. Wiemer Vineyard", "address": {"city": "Dundee", "state": "NY", "street number": "3962", "zip": "14837", "street name": "New York 14"}}, {"category": ["pharmacy", "convenience_store", "health", "food", "store", "point_of_interest", "establishment"], "geocode": {"lat": 42.1763511, "lng": -76.8358038}, "_id": "57cf75cea73e494d8675ed07", "name": "Rite Aid Pharmacy", "address": {"city": "Horseheads", "state": "NY", "street number": "2898", "zip": "14845", "street name": "Westinghouse Road"}}, {"category": ["car_dealer", "car_repair", "store", "point_of_interest", "establishment"], "geocode": {"lat": 42.58434159999999, "lng": -76.2013484}, "_id": "57cf75cea73e494d8675ed08", "name": "Dovi Motors Inc.", "address": {"city": "Cortland", "state": "NY", "street number": "263", "zip": "13045", "street name": "Tompkins Street"}}, {"category": ["bar", "restaurant", "food", "point_of_interest", "establishment"], "geocode": {"lat": 42.440953, "lng": -76.48486}, "_id": "57cf75cea73e494d8675ed09", "name": "The Nines", "address": {"city": "Ithaca", "state": "NY", "street number": "311", "zip": "14850", "street name": "College Avenue"}}, {"category": ["liquor_store", "food", "store", "point_of_interest", "establishment"], "geocode": {"lat": 42.157695, "lng": -76.8280024}, "_id": "57cf75cea73e494d8675ed0a", "name": "GCP Discount Liquors Inc", "address": {"city": "Horseheads", "state": "NY", "street number": "1020", "zip": "14845", "street name": "Center Street"}}, {"category": ["car_repair", "store", "point_of_interest", "establishment"], "geocode": {"lat": 42.352731, "lng": -76.546897}, "_id": "57cf75cea73e494d8675ed0b", "name": "Jay Z Auto Repair & Tire Center", "address": {"street name": "Piper Road", "state": "NY", "street number": "32", "zip": "14867"}}, {"category": ["store", "point_of_interest", "establishment"], "geocode": {"lat": 42.427536, "lng": -76.5140321}, "_id": "57cf75cea73e494d8675ed0c", "name": "Elite Sports", "address": {"city": "Ithaca", "state": "NY", "street number": "135", "zip": "14850", "street name": "Fairgrounds Memorial Parkway"}}, {"category": ["pharmacy", "health", "store", "point_of_interest", "establishment"], "geocode": {"lat": 42.427536, "lng": -76.5140321}, "_id": "57cf75cea73e494d8675ed0d", "name": "Fontaine Dennis", "address": {"city": "Ithaca", "state": "NY", "street number": "135", "zip": "14850", "street name": "Fairgrounds Memorial Parkway"}}, {"category": ["book_store", "store", "point_of_interest", "establishment"], "geocode": {"lat": 42.502125, "lng": -76.287413}, "_id": "57cf75cea73e494d8675ed0e", "name": "Tompkins Cortland CC Bookstore", "address": {"city": "Dryden", "state": "NY", "street number": "170", "zip": "13053", "street name": "North St"}}, {"category": ["restaurant", "food", "point_of_interest", "establishment"], "geocode": {"lat": 42.430758, "lng": -76.509518}, "_id": "57cf75cea73e494d8675ed0f", "name": "Tokyo Hibachi Sushi & Asian Bistro", "address": {"city": "Ithaca", "state": "NY", "street number": "722", "zip": "14850", "street name": "South Meadow Street"}}, {"category": ["pharmacy", "health", "store", "point_of_interest", "establishment"], "geocode": {"lat": 42.1526617, "lng": -76.8730468}, "_id": "57cf75cea73e494d8675ed10", "name": "Target Pharmacy", "address": {"city": "Elmira", "state": "NY", "street number": "930", "zip": "14903", "street name": "County Road 64"}}, {"category": ["shopping_mall", "department_store", "jewelry_store", "restaurant", "food", "clothing_store", "store", "point_of_interest", "establishment"], "geocode": {"lat": 40.39151499999999, "lng": -86.850814}, "_id": "57cf75cea73e494d8675ed11", "name": "Tippecanoe Mall", "address": {"city": "Lafayette", "state": "IN", "street number": "2415", "zip": "47905", "street name": "Sagamore Parkway South"}}, {"category": ["book_store", "library", "store", "point_of_interest", "establishment"], "geocode": {"lat": 40.3835969, "lng": -86.83993319999999}, "_id": "57cf75cea73e494d8675ed12", "name": "Ivy Tech CC Lafayette Campus Bookstore", "address": {"city": "Lafayette", "state": "IN", "street number": "3101", "zip": "47905", "street name": "South Creasy Lane"}}, {"category": ["finance", "store", "point_of_interest", "establishment"], "geocode": {"lat": 40.413579, "lng": -86.825846}, "_id": "57cf75cea73e494d8675ed13", "name": "The UPS Store", "address": {"city": "Lafayette", "state": "IN", "street number": "4315", "zip": "47905", "street name": "Commerce Drive"}}, {"category": ["department_store", "electronics_store", "grocery_or_supermarket", "food", "store", "point_of_interest", "establishment"], "geocode": {"lat": 40.456955, "lng": -86.932941}, "_id": "57cf75cea73e494d8675ed14", "name": "Walmart Supercenter", "address": {"city": "West Lafayette", "state": "IN", "street number": "2801", "zip": "47906", "street name": "Northwestern Avenue"}}, {"category": ["restaurant", "food", "point_of_interest", "establishment"], "geocode": {"lat": 40.4311589, "lng": -86.86864360000001}, "_id": "57cf75cea73e494d8675ed15", "name": "Subway", "address": {"city": "Lafayette", "state": "IN", "street number": "2200", "zip": "47904", "street name": "Elmwood Avenue"}}, {"category": ["restaurant", "food", "point_of_interest", "establishment"], "geocode": {"lat": 40.4569125, "lng": -86.93291099999999}, "_id": "57cf75cea73e494d8675ed16", "name": "Subway", "address": {"city": "West Lafayette", "state": "IN", "street number": "2801", "zip": "47996", "street name": "Northwestern Ave"}}, {"category": ["meal_takeaway", "bar", "restaurant", "food", "point_of_interest", "establishment"], "geocode": {"lat": 40.42339049999999, "lng": -86.8999585}, "_id": "57cf75cea73e494d8675ed17", "name": "Buffalo Wild Wings", "address": {"city": "West Lafayette", "state": "IN", "street number": "360", "zip": "47906", "street name": "Brown Street"}}, {"category": ["bar", "restaurant", "food", "point_of_interest", "establishment"], "geocode": {"lat": 40.4229098, "lng": -86.90317900000001}, "_id": "57cf75cea73e494d8675ed18", "name": "Nine Irish Brothers, West Lafayette", "address": {"city": "West Lafayette", "state": "IN", "street number": "119", "zip": "47906", "street name": "Howard Avenue"}}, {"category": ["furniture_store", "home_goods_store", "store", "point_of_interest", "establishment"], "geocode": {"lat": 40.391539, "lng": -86.85051759999999}, "_id": "57cf75cea73e494d8675ed19", "name": "Kitchen Collection", "address": {"city": "Lafayette", "state": "IN", "street number": "2415", "zip": "47905", "street name": "Sagamore Parkway South"}}, {"category": ["health", "food", "store", "point_of_interest", "establishment"], "geocode": {"lat": 40.39277679999999, "lng": -86.84988129999999}, "_id": "57cf75cea73e494d8675ed1a", "name": "Fat Predator Supplements (Tippecanoe Mall - Entrance B)", "address": {"city": "Lafayette", "state": "IN", "street number": "2415", "zip": "47905", "street name": "Sagamore Parkway South"}}, {"category": ["meal_takeaway", "restaurant", "food", "point_of_interest", "establishment"], "geocode": {"lat": 40.41695600000001, "lng": -86.82844899999999}, "_id": "57cf75cea73e494d8675ed1b", "name": "Olive Garden", "address": {"city": "Lafayette", "state": "IN", "street number": "4151", "zip": "47905", "street name": "South Street"}}, {"category": ["restaurant", "food", "point_of_interest", "establishment"], "geocode": {"lat": 40.42272849999999, "lng": -86.9054049}, "_id": "57cf75cea73e494d8675ed1c", "name": "Triple XXX Family Restaurant", "address": {"city": "West Lafayette", "state": "IN", "street number": "2", "zip": "47906", "street name": "North Salisbury Street"}}, {"category": ["restaurant", "food", "point_of_interest", "establishment"], "geocode": {"lat": 40.4038081, "lng": -86.956937}, "_id": "57cf75cea73e494d8675ed1d", "name": "McGraw's Steak Chop & Fish House", "address": {"city": "West Lafayette", "state": "IN", "street number": "2707", "zip": "47906", "street name": "South River Road"}}, {"category": ["electronics_store", "home_goods_store", "store", "point_of_interest", "establishment"], "geocode": {"lat": 40.4574011, "lng": -86.93251120000001}, "_id": "57cf75cea73e494d8675ed1e", "name": "Walmart Photo Center", "address": {"city": "West Lafayette", "state": "IN", "street number": "2801", "zip": "47906", "street name": "Northwestern Ave"}}, {"category": ["store", "point_of_interest", "establishment"], "geocode": {"lat": 40.391877, "lng": -86.8514601}, "_id": "57cf75cea73e494d8675ed1f", "name": "Verizon Authorized Retailer - Cellular Sales", "address": {"city": "Lafayette", "state": "IN", "street number": "2415", "zip": "47905", "street name": "Sagamore Parkway South"}}, {"category": ["department_store", "electronics_store", "clothing_store", "furniture_store", "home_goods_store", "store", "point_of_interest", "establishment"], "geocode": {"lat": 40.41996750000001, "lng": -86.8472048}, "_id": "57cf75cea73e494d8675ed20", "name": "Target", "address": {"city": "Lafayette", "state": "IN", "street number": "3630", "zip": "47905", "street name": "South Street"}}, {"category": ["store", "point_of_interest", "establishment"], "geocode": {"lat": 40.392929, "lng": -86.849755}, "_id": "57cf75cea73e494d8675ed21", "name": "Gold Pros", "address": {"city": "Lafayette", "state": "IN", "street number": "2415", "zip": "47905", "street name": "Sagamore Parkway South"}}, {"category": ["food", "clothing_store", "home_goods_store", "store", "point_of_interest", "establishment"], "geocode": {"lat": 40.4208242, "lng": -86.8564907}, "_id": "57cf75cea73e494d8675ed22", "name": "Party City", "address": {"city": "Lafayette", "state": "IN", "street number": "311", "zip": "47905", "street name": "Sagamore Parkway North"}}, {"category": ["meal_delivery", "meal_takeaway", "restaurant", "food", "point_of_interest", "establishment"], "geocode": {"lat": 40.4334587, "lng": -86.8693725}, "_id": "57cf75cea73e494d8675ed23", "name": "Papa John's Pizza", "address": {"city": "Lafayette", "state": "IN", "street number": "2404", "zip": "47904", "street name": "Greenbush Road"}}, {"category": ["store", "point_of_interest", "establishment"], "geocode": {"lat": 40.4573916, "lng": -86.9326962}, "_id": "57cf75cea73e494d8675ed24", "name": "T-Mobile", "address": {"city": "West Lafayette", "state": "IN", "street number": "2801", "zip": "47906", "street name": "Northwestern Avenue"}}, {"category": ["meal_takeaway", "bar", "restaurant", "food", "point_of_interest", "establishment"], "geocode": {"lat": 40.4193058, "lng": -86.8892597}, "_id": "57cf75cea73e494d8675ed25", "name": "DT Kirby's", "address": {"city": "Lafayette", "state": "IN", "street number": "644", "zip": "47901", "street name": "Main Street"}}, {"category": ["restaurant", "food", "point_of_interest", "establishment"], "geocode": {"lat": 40.4182545, "lng": -86.8355129}, "_id": "57cf75cea73e494d8675ed26", "name": "Chick-fil-A", "address": {"city": "Lafayette", "state": "IN", "street number": "3836", "zip": "47905", "street name": "South Street"}}, {"category": ["convenience_store", "electronics_store", "health", "food", "clothing_store", "home_goods_store", "store", "point_of_interest", "establishment"], "geocode": {"lat": 40.453955, "lng": -86.91633499999999}, "_id": "57cf75cea73e494d8675ed27", "name": "Walgreens", "address": {"city": "West Lafayette", "state": "IN", "street number": "1000", "zip": "47906", "street name": "Sagamore Parkway West"}}, {"category": ["hardware_store", "furniture_store", "home_goods_store", "store", "point_of_interest", "establishment"], "geocode": {"lat": 40.4189489, "lng": -86.84156159999999}, "_id": "57cf75cea73e494d8675ed28", "name": "Lowe's Home Improvement", "address": {"city": "Lafayette", "state": "IN", "street number": "100", "zip": "47905", "street name": "North Creasy Lane"}}, {"category": ["restaurant", "food", "point_of_interest", "establishment"], "geocode": {"lat": 40.4170396, "lng": -86.8572423}, "_id": "57cf75cea73e494d8675ed29", "name": "Subway", "address": {"city": "Lafayette", "state": "IN", "street number": "1", "zip": "47905", "street name": "Sagamore Parkway South"}}, {"category": ["convenience_store", "bakery", "grocery_or_supermarket", "food", "store", "point_of_interest", "establishment"], "geocode": {"lat": 40.4552885, "lng": -86.9176202}, "_id": "57cf75cea73e494d8675ed2a", "name": "PayLess Super Market", "address": {"city": "West Lafayette", "state": "IN", "zip": "47906"}}, {"category": ["restaurant", "food", "point_of_interest", "establishment"], "geocode": {"lat": 40.7664574, "lng": -87.1237927}, "_id": "57cf75cea73e494d8675ed2b", "name": "Subway", "address": {"city": "Remington", "state": "IN", "street number": "4154", "zip": "47977", "street name": "U.S. 24"}}, {"category": ["bar", "restaurant", "food", "point_of_interest", "establishment"], "geocode": {"lat": 40.4181343, "lng": -86.8450065}, "_id": "57cf75cea73e494d8675ed2c", "name": "Outback Steakhouse", "address": {"city": "Lafayette", "state": "IN", "street number": "3660", "zip": "47905", "street name": "State Road 26"}}, {"category": ["electronics_store", "store", "point_of_interest", "establishment"], "geocode": {"lat": 40.39655, "lng": -86.85710399999999}, "_id": "57cf75cea73e494d8675ed2d", "name": "AT&T", "address": {"city": "Lafayette", "state": "IN", "street number": "2120", "zip": "47905", "street name": "Sagamore Parkway South"}}, {"category": ["restaurant", "food", "point_of_interest", "establishment"], "geocode": {"lat": 40.429662, "lng": -86.8725497}, "_id": "57cf75cea73e494d8675ed2e", "name": "Arni's", "address": {"city": "Lafayette", "state": "IN", "street number": "2200", "zip": "47904", "street name": "Elmwood Avenue"}}, {"category": ["department_store", "electronics_store", "grocery_or_supermarket", "food", "store", "point_of_interest", "establishment"], "geocode": {"lat": 40.413311, "lng": -86.82713419999999}, "_id": "57cf75cea73e494d8675ed2f", "name": "Walmart Supercenter", "address": {"city": "Lafayette", "state": "IN", "street number": "4205", "zip": "47905", "street name": "Commerce Drive"}}, {"category": ["meal_takeaway", "restaurant", "food", "point_of_interest", "establishment"], "geocode": {"lat": 40.397206, "lng": -86.851719}, "_id": "57cf75cea73e494d8675ed30", "name": "Penn Station East Coast Subs", "address": {"city": "Lafayette", "state": "IN", "street number": "3540", "zip": "47905", "street name": "Indiana 38"}}, {"category": ["grocery_or_supermarket", "food", "store", "point_of_interest", "establishment"], "geocode": {"lat": 40.4190492, "lng": -86.837976}, "_id": "57cf75cea73e494d8675ed31", "name": "D & R", "address": {"city": "Lafayette", "state": "IN", "street number": "105", "zip": "47905", "street name": "North Creasy Lane"}}, {"category": ["store", "point_of_interest", "establishment"], "geocode": {"lat": 40.2718223, "lng": -87.2582906}, "_id": "57cf75cea73e494d8675ed32", "name": "Badlands", "address": {"city": "Attica", "state": "IN", "street number": "3968", "zip": "47918", "street name": "North Xavier Road"}}, {"category": ["post_office", "finance", "store", "point_of_interest", "establishment"], "geocode": {"lat": 40.425061, "lng": -86.91160699999999}, "_id": "57cf75cea73e494d8675ed33", "name": "The UPS Store", "address": {"city": "West Lafayette", "state": "IN", "street number": "101", "zip": "47906", "street name": "N Grant St"}}, {"category": ["restaurant", "food", "point_of_interest", "establishment"], "geocode": {"lat": 40.4229257, "lng": -86.9025341}, "_id": "57cf75cea73e494d8675ed34", "name": "China One", "address": {"city": "West Lafayette", "state": "IN", "street number": "132", "zip": "47906", "street name": "Howard Avenue"}}, {"category": ["liquor_store", "food", "store", "point_of_interest", "establishment"], "geocode": {"lat": 40.7225186, "lng": -86.76252009999999}, "_id": "57cf75cea73e494d8675ed35", "name": "Whyte Horse Winery", "address": {"city": "Monticello", "state": "IN", "street number": "1510", "zip": "47960", "street name": "South Airport Road"}}, {"category": ["meal_takeaway", "restaurant", "food", "point_of_interest", "establishment"], "geocode": {"lat": 40.4243219, "lng": -86.8595955}, "_id": "57cf75cea73e494d8675ed36", "name": "Little Caesars Pizza", "address": {"city": "Lafayette", "state": "IN", "street number": "3205", "zip": "47909", "street name": "Union Street"}}, {"category": ["bar", "restaurant", "food", "point_of_interest", "establishment"], "geocode": {"lat": 40.3943968, "lng": -86.8495452}, "_id": "57cf75cea73e494d8675ed37", "name": "Texas Roadhouse", "address": {"city": "Lafayette", "state": "IN", "zip": "47905"}}, {"category": ["car_dealer", "car_repair", "store", "point_of_interest", "establishment"], "geocode": {"lat": 40.3948895, "lng": -86.83928949999999}, "_id": "57cf75cea73e494d8675ed38", "name": "Bob Rohrman Subaru", "address": {"city": "Lafayette", "state": "IN", "street number": "1600", "zip": "47905", "street name": "South Creasy Lane"}}, {"category": ["food", "point_of_interest", "establishment"], "geocode": {"lat": 40.5618796, "lng": -86.6519018}, "_id": "57cf75cea73e494d8675ed39", "name": "Indiana Packers Corporation", "address": {"city": "Delphi", "state": "IN", "street number": "6755", "zip": "46923", "street name": "West 100 North"}}, {"category": ["hardware_store", "home_goods_store", "store", "point_of_interest", "establishment"], "geocode": {"lat": 40.4694614, "lng": -86.96001679999999}, "_id": "57cf75cea73e494d8675ed3a", "name": "Menards", "address": {"city": "West Lafayette", "state": "IN", "street number": "2868", "zip": "47906", "street name": "U.S. 52"}}, {"category": ["liquor_store", "grocery_or_supermarket", "food", "store", "point_of_interest", "establishment"], "geocode": {"lat": 40.4058134, "lng": -86.856533}, "_id": "57cf75cea73e494d8675ed3b", "name": "ALDI", "address": {"city": "Lafayette", "state": "IN", "street number": "957", "zip": "47905", "street name": "Sagamore Parkway South"}}, {"category": ["bar", "restaurant", "food", "point_of_interest", "establishment"], "geocode": {"lat": 40.419364, "lng": -86.88999299999999}, "_id": "57cf75cea73e494d8675ed3c", "name": "Lafayette Brewing Company", "address": {"city": "Lafayette", "state": "IN", "street number": "622", "zip": "47901", "street name": "Main Street"}}, {"category": ["hardware_store", "home_goods_store", "store", "point_of_interest", "establishment"], "geocode": {"lat": 40.45389309999999, "lng": -86.9238878}, "_id": "57cf75cea73e494d8675ed3d", "name": "Ace Hardware", "address": {"city": "West Lafayette", "state": "IN", "street number": "1194", "zip": "47906", "street name": "Sagamore Parkway West"}}, {"category": ["grocery_or_supermarket", "bakery", "electronics_store", "food", "store", "point_of_interest", "establishment"], "geocode": {"lat": 40.4148118, "lng": -86.81291030000001}, "_id": "57cf75cea73e494d8675ed3e", "name": "Meijer", "address": {"city": "Lafayette", "state": "IN", "street number": "4901", "zip": "47905", "street name": "Indiana 26"}}, {"category": ["car_repair", "store", "point_of_interest", "establishment"], "geocode": {"lat": 40.39606119999999, "lng": -86.8545346}, "_id": "57cf75cea73e494d8675ed3f", "name": "Pep Boys Auto Parts & Service", "address": {"city": "Lafayette", "state": "IN", "street number": "2121", "zip": "47905", "street name": "Sagamore Parkway South"}}, {"category": ["clothing_store", "furniture_store", "home_goods_store", "store", "point_of_interest", "establishment"], "geocode": {"lat": 40.4540595, "lng": -86.9080548}, "_id": "57cf75cea73e494d8675ed40", "name": "Goodwill Store", "address": {"city": "West Lafayette", "state": "IN", "street number": "200", "zip": "47906", "street name": "Sagamore Parkway West"}}, {"category": ["restaurant", "food", "point_of_interest", "establishment"], "geocode": {"lat": 40.4214516, "lng": -86.9037085}, "_id": "57cf75cea73e494d8675ed41", "name": "Happy China", "address": {"city": "West Lafayette", "state": "IN", "street number": "219", "zip": "47906", "street name": "East State Street"}}, {"category": ["car_repair", "store", "point_of_interest", "establishment"], "geocode": {"lat": 40.4571522, "lng": -86.9320571}, "_id": "57cf75cea73e494d8675ed42", "name": "Walmart Tire & Lube Express", "address": {"city": "West Lafayette", "state": "IN", "street number": "2801", "zip": "47906", "street name": "Northwestern Ave"}}, {"category": ["car_repair", "store", "point_of_interest", "establishment"], "geocode": {"lat": 40.61467309999999, "lng": -87.3152377}, "_id": "57cf75cea73e494d8675ed43", "name": "NAPA Auto Parts - Fowler Auto Parts", "address": {"city": "Fowler", "state": "IN", "street number": "400", "zip": "47944", "street name": "South Grant Avenue"}}, {"category": ["restaurant", "food", "point_of_interest", "establishment"], "geocode": {"lat": 40.41692, "lng": -86.826314}, "_id": "57cf75cea73e494d8675ed44", "name": "IHOP", "address": {"city": "Lafayette", "state": "IN", "street number": "4215", "zip": "47905", "street name": "Indiana 26"}}, {"category": ["restaurant", "food", "point_of_interest", "establishment"], "geocode": {"lat": 40.4380185, "lng": -86.8623763}, "_id": "57cf75cea73e494d8675ed45", "name": "Mad Mushroom Pizza", "address": {"city": "Lafayette", "state": "IN", "street number": "3014", "zip": "47904", "street name": "Underwood Street"}}, {"category": ["bar", "restaurant", "food", "point_of_interest", "establishment"], "geocode": {"lat": 40.4182697, "lng": -86.83439249999999}, "_id": "57cf75cea73e494d8675ed46", "name": "Logan's Roadhouse", "address": {"city": "Lafayette", "state": "IN", "street number": "3840", "zip": "47905", "street name": "South Street"}}, {"category": ["restaurant", "food", "point_of_interest", "establishment"], "geocode": {"lat": 40.4233538, "lng": -86.9066605}, "_id": "57cf75cea73e494d8675ed47", "name": "AJ's Burgers & Beef", "address": {"city": "West Lafayette", "state": "IN", "street number": "134", "zip": "47906", "street name": "West State Street"}}, {"category": ["bar", "restaurant", "food", "point_of_interest", "establishment"], "geocode": {"lat": 40.41897900000001, "lng": -86.89466}, "_id": "57cf75cea73e494d8675ed48", "name": "Black Sparrow", "address": {"city": "Lafayette", "state": "IN", "street number": "223", "zip": "47901", "street name": "Main Street"}}, {"category": ["meal_delivery", "meal_takeaway", "restaurant", "food", "point_of_interest", "establishment"], "geocode": {"lat": 40.4222814, "lng": -86.9019299}, "_id": "57cf75cea73e494d8675ed49", "name": "Puccini's Smiling Teeth Pizza & Pasta", "address": {"city": "West Lafayette", "state": "IN", "street number": "300", "zip": "47906", "street name": "Brown Street"}}, {"category": ["furniture_store", "general_contractor", "home_goods_store", "store", "point_of_interest", "establishment"], "geocode": {"lat": 40.4075657, "lng": -86.85230039999999}, "_id": "57cf75cea73e494d8675ed4a", "name": "Bollock Enterprises, LLC", "address": {"city": "Lafayette", "state": "IN", "street number": "900", "zip": "47905", "street name": "Farabee Court"}}, {"category": ["home_goods_store", "furniture_store", "store", "point_of_interest", "establishment"], "geocode": {"lat": 40.43119589999999, "lng": -86.8693364}, "_id": "57cf75cea73e494d8675ed4b", "name": "Home Works", "address": {"city": "Lafayette", "state": "IN", "street number": "2200", "zip": "47904", "street name": "Elmwood Avenue"}}, {"category": ["meal_takeaway", "restaurant", "food", "point_of_interest", "establishment"], "geocode": {"lat": 40.3825829, "lng": -86.884818}, "_id": "57cf75cea73e494d8675ed4c", "name": "Little Caesars Pizza", "address": {"city": "Lafayette", "state": "IN", "street number": "3105", "zip": "47909", "street name": "South 9th Street"}}, {"category": ["meal_delivery", "meal_takeaway", "restaurant", "food", "point_of_interest", "establishment"], "geocode": {"lat": 40.3987609, "lng": -86.83701680000001}, "_id": "57cf75cea73e494d8675ed4d", "name": "Domino's Pizza", "address": {"city": "Lafayette", "state": "IN", "street number": "1221", "zip": "47905", "street name": "South Creasy Lane"}}, {"category": ["car_repair", "store", "point_of_interest", "establishment"], "geocode": {"lat": 40.4133429, "lng": -86.8272471}, "_id": "57cf75cea73e494d8675ed4e", "name": "Walmart Tire & Lube", "address": {"city": "Lafayette", "state": "IN", "street number": "4205", "zip": "47905", "street name": "Commerce Drive"}}, {"category": ["store", "point_of_interest", "establishment"], "geocode": {"lat": 40.400479, "lng": -86.853974}, "_id": "57cf75cea73e494d8675ed4f", "name": "Michaels", "address": {"city": "Lafayette", "state": "IN", "zip": "47905"}}, {"category": ["restaurant", "food", "point_of_interest", "establishment"], "geocode": {"lat": 40.40035319999999, "lng": -86.8551079}, "_id": "57cf75cea73e494d8675ed50", "name": "Heisei", "address": {"city": "Lafayette", "state": "IN", "street number": "3500", "zip": "47905", "street name": "Indiana 38"}}, {"category": ["restaurant", "food", "point_of_interest", "establishment"], "geocode": {"lat": 40.423593, "lng": -86.9080874}, "_id": "57cf75cea73e494d8675ed51", "name": "HotBox Pizza", "address": {"city": "West Lafayette", "state": "IN", "street number": "135", "zip": "47906", "street name": "South Chauncey Avenue"}}, {"category": ["shoe_store", "store", "point_of_interest", "establishment"], "geocode": {"lat": 40.3924245, "lng": -86.8508237}, "_id": "57cf75cea73e494d8675ed52", "name": "Mosser Florsheim", "address": {"city": "Lafayette", "state": "IN", "street number": "2415", "zip": "47905", "street name": "Sagamore Parkway South"}}, {"category": ["home_goods_store", "store", "point_of_interest", "establishment"], "geocode": {"lat": 40.4300095, "lng": -86.8725959}, "_id": "57cf75cea73e494d8675ed53", "name": "Interior Objects", "address": {"city": "Lafayette", "state": "IN", "street number": "2200", "zip": "47904", "street name": "Elmwood Avenue"}}, {"category": ["bar", "restaurant", "food", "point_of_interest", "establishment"], "geocode": {"lat": 40.41933, "lng": -86.89529399999999}, "_id": "57cf75cea73e494d8675ed54", "name": "RedSeven Bar & Grill", "address": {"city": "Lafayette", "state": "IN", "street number": "200", "zip": "47901", "street name": "Main Street"}}, {"category": ["clothing_store", "shoe_store", "store", "point_of_interest", "establishment"], "geocode": {"lat": 40.3916997, "lng": -86.84997580000001}, "_id": "57cf75cea73e494d8675ed55", "name": "Buckle", "address": {"city": "Lafayette", "state": "IN", "zip": "47905"}}, {"category": ["book_store", "store", "point_of_interest", "establishment"], "geocode": {"lat": 40.4238349, "lng": -86.9088834}, "_id": "57cf75cea73e494d8675ed56", "name": "Von's Comics", "address": {"city": "West Lafayette", "state": "IN", "street number": "319", "zip": "47906", "street name": "West State Street"}}, {"category": ["car_repair", "store", "point_of_interest", "establishment"], "geocode": {"lat": 40.4252515, "lng": -86.85880619999999}, "_id": "57cf75cea73e494d8675ed57", "name": "Midas", "address": {"city": "Lafayette", "state": "IN", "street number": "804", "zip": "47904", "street name": "Sagamore Parkway North"}}, {"category": ["book_store", "store", "point_of_interest", "establishment"], "geocode": {"lat": 40.3958793, "lng": -86.85199449999999}, "_id": "57cf75cea73e494d8675ed58", "name": "Family Christian", "address": {"city": "Lafayette", "state": "IN", "street number": "3555", "zip": "47905", "street name": "Indiana 38"}}, {"category": ["bakery", "cafe", "meal_takeaway", "restaurant", "food", "store", "point_of_interest", "establishment"], "geocode": {"lat": 40.4211389, "lng": -86.901072}, "_id": "57cf75cea73e494d8675ed59", "name": "Panera Bread", "address": {"city": "West Lafayette", "state": "IN", "street number": "328", "zip": "47906", "street name": "East State Street"}}, {"category": ["convenience_store", "electronics_store", "health", "food", "clothing_store", "home_goods_store", "store", "point_of_interest", "establishment"], "geocode": {"lat": 40.416633, "lng": -86.83964}, "_id": "57cf75cea73e494d8675ed5a", "name": "Walgreens", "address": {"city": "Lafayette", "state": "IN", "street number": "130", "zip": "47905", "street name": "South Creasy Lane"}}, {"category": ["electronics_store", "store", "point_of_interest", "establishment"], "geocode": {"lat": 40.41355199999999, "lng": -86.8253206}, "_id": "57cf75cea73e494d8675ed5b", "name": "Disc Replay Lafayette", "address": {"city": "Lafayette", "state": "IN", "street number": "4315", "zip": "47905", "street name": "Commerce Drive"}}, {"category": ["car_repair", "store", "point_of_interest", "establishment"], "geocode": {"lat": 40.4109088, "lng": -86.86110599999999}, "_id": "57cf75cea73e494d8675ed5c", "name": "NAPA Auto Parts - Lafayette Auto Parts", "address": {"city": "Lafayette", "state": "IN", "street number": "620", "zip": "47904", "street name": "South Earl Avenue"}}, {"category": ["restaurant", "food", "point_of_interest", "establishment"], "geocode": {"lat": 40.4261256, "lng": -86.9293947}, "_id": "57cf75cea73e494d8675ed5d", "name": "Subway", "address": {"city": "West Lafayette", "state": "IN", "street number": "1400", "zip": "47906", "street name": "West State Street"}}, {"category": ["food", "store", "point_of_interest", "establishment"], "geocode": {"lat": 40.4306004, "lng": -86.8714217}, "_id": "57cf75cea73e494d8675ed5e", "name": "Dollar General", "address": {"city": "Lafayette", "state": "IN", "street number": "2200", "zip": "47904", "street name": "Elmwood Avenue"}}, {"category": ["restaurant", "food", "point_of_interest", "establishment"], "geocode": {"lat": 40.4647261, "lng": -86.9344823}, "_id": "57cf75cea73e494d8675ed5f", "name": "Thai Essence", "address": {"city": "West Lafayette", "state": "IN", "street number": "1534", "zip": "47906", "street name": "Win Hentschel Boulevard"}}, {"category": ["hardware_store", "home_goods_store", "store", "point_of_interest", "establishment"], "geocode": {"lat": 40.3868932, "lng": -86.8998886}, "_id": "57cf75cea73e494d8675ed60", "name": "Ace Hardware", "address": {"city": "Lafayette", "state": "IN", "street number": "119", "zip": "47909", "street name": "Beck Lane"}}, {"category": ["home_goods_store", "store", "point_of_interest", "establishment"], "geocode": {"lat": 40.3921842, "lng": -86.8506286}, "_id": "57cf75cea73e494d8675ed61", "name": "New Age Spirit", "address": {"city": "Lafayette", "state": "IN", "street number": "2415", "zip": "47905", "street name": "Sagamore Parkway South"}}, {"category": ["restaurant", "food", "point_of_interest", "establishment"], "geocode": {"lat": 40.4132924, "lng": -86.8274677}, "_id": "57cf75cea73e494d8675ed62", "name": "Subway", "address": {"city": "Lafayette", "state": "IN", "street number": "4205", "zip": "47905", "street name": "Commerce Drive"}}, {"category": ["clothing_store", "store", "point_of_interest", "establishment"], "geocode": {"lat": 40.3936266, "lng": -86.85189129999999}, "_id": "57cf75cea73e494d8675ed63", "name": "Dockers", "address": {"city": "Lafayette", "state": "IN", "street number": "2415", "zip": "47905", "street name": "Sagamore Parkway South"}}, {"category": ["clothing_store", "store", "point_of_interest", "establishment"], "geocode": {"lat": 40.39098970000001, "lng": -86.849734}, "_id": "57cf75cea73e494d8675ed64", "name": "Perfumania", "address": {"city": "Lafayette", "state": "IN", "zip": "47905"}}, {"category": ["health", "store", "point_of_interest", "establishment"], "geocode": {"lat": 40.4302717, "lng": -86.872394}, "_id": "57cf75cea73e494d8675ed65", "name": "NeoVision Optical", "address": {"city": "Lafayette", "state": "IN", "street number": "2200", "zip": "47904", "street name": "Elmwood Avenue"}}, {"category": ["bakery", "grocery_or_supermarket", "food", "store", "point_of_interest", "establishment"], "geocode": {"lat": 40.43363129999999, "lng": -86.870284}, "_id": "57cf75cea73e494d8675ed66", "name": "PayLess Super Market", "address": {"city": "Lafayette", "state": "IN", "street number": "2200", "zip": "47904", "street name": "Greenbush Street"}}, {"category": ["restaurant", "food", "point_of_interest", "establishment"], "geocode": {"lat": 40.4228129, "lng": -86.9077265}, "_id": "57cf75cea73e494d8675ed67", "name": "Subway", "address": {"city": "West Lafayette", "state": "IN", "street number": "135", "zip": "47906", "street name": "South Chauncey Avenue"}}, {"category": ["cafe", "food", "store", "point_of_interest", "establishment"], "geocode": {"lat": 40.4529074, "lng": -86.9153012}, "_id": "57cf75cea73e494d8675ed68", "name": "Starbucks", "address": {"city": "West Lafayette", "state": "IN", "street number": "545", "zip": "47906", "street name": "Sagamore Parkway West"}}, {"category": ["car_dealer", "car_repair", "store", "point_of_interest", "establishment"], "geocode": {"lat": 40.3979158, "lng": -86.85499899999999}, "_id": "57cf75cea73e494d8675ed69", "name": "Mike Raisor Automotive Group", "address": {"city": "Lafayette", "state": "IN", "street number": "2051", "zip": "47905", "street name": "Sagamore Parkway South"}}, {"category": ["store", "point_of_interest", "establishment"], "geocode": {"lat": 40.4202127, "lng": -86.85556509999999}, "_id": "57cf75cea73e494d8675ed6a", "name": "Speedpro Imaging", "address": {"city": "Lafayette", "state": "IN", "street number": "311", "zip": "47904", "street name": "Sagamore Parkway North"}}, {"category": ["cafe", "food", "store", "point_of_interest", "establishment"], "geocode": {"lat": 40.42506820000001, "lng": -86.9111305}, "_id": "57cf75cea73e494d8675ed6b", "name": "Starbucks", "address": {"city": "West Lafayette", "state": "IN", "street number": "101", "zip": "47906", "street name": "North Grant Street"}}, {"category": ["car_repair", "store", "point_of_interest", "establishment"], "geocode": {"lat": 40.412088, "lng": -86.83953600000001}, "_id": "57cf75cea73e494d8675ed6c", "name": "Discount Tire Store - Lafayette, IN", "address": {"city": "Lafayette", "state": "IN", "street number": "240", "zip": "47905", "street name": "South Creasy Lane"}}, {"category": ["car_repair", "store", "point_of_interest", "establishment"], "geocode": {"lat": 40.43995879999999, "lng": -86.88430029999999}, "_id": "57cf75cea73e494d8675ed6d", "name": "NAPA Auto Parts - North 9th Street Auto Parts", "address": {"city": "Lafayette", "state": "IN", "zip": "47909"}}, {"category": ["casino", "food", "point_of_interest", "establishment"], "geocode": {"lat": 40.41353379999999, "lng": -86.8253302}, "_id": "57cf75cea73e494d8675ed6e", "name": "Seward Casino Parties", "address": {"city": "Lafayette", "state": "IN", "street number": "4315", "zip": "47905", "street name": "Commerce Drive"}}, {"category": ["finance", "store", "point_of_interest", "establishment"], "geocode": {"lat": 40.4134885, "lng": -86.82523640000001}, "_id": "57cf75cea73e494d8675ed6f", "name": "The Gold Experts", "address": {"city": "Lafayette", "state": "IN", "street number": "4315", "zip": "47905", "street name": "Commerce Drive"}}, {"category": ["restaurant", "food", "point_of_interest", "establishment"], "geocode": {"lat": 40.4214461, "lng": -86.90493529999999}, "_id": "57cf75cea73e494d8675ed70", "name": "Green Leaf Vietnamese Cuisine", "address": {"city": "West Lafayette", "state": "IN", "street number": "111", "zip": "47906", "street name": "South River Road"}}, {"category": ["meal_delivery", "meal_takeaway", "restaurant", "food", "point_of_interest", "establishment"], "geocode": {"lat": 40.42341, "lng": -86.906767}, "_id": "57cf75cea73e494d8675ed71", "name": "Jimmy John's", "address": {"city": "West Lafayette", "state": "IN", "street number": "134", "zip": "47906", "street name": "West State Street"}}, {"category": ["art_gallery", "store", "point_of_interest", "establishment"], "geocode": {"lat": 40.4224734, "lng": -86.9129701}, "_id": "57cf75cea73e494d8675ed72", "name": "Purdue University Galleries", "address": {"city": "West Lafayette", "state": "IN", "street number": "552", "zip": "47907", "street name": "West Wood Street"}}, {"category": ["pharmacy", "health", "store", "point_of_interest", "establishment"], "geocode": {"lat": 40.4538655, "lng": -86.9148062}, "_id": "57cf75cea73e494d8675ed73", "name": "CVS Pharmacy", "address": {"city": "West Lafayette", "state": "IN", "street number": "512", "zip": "47906", "street name": "Sagamore Parkway West"}}, {"category": ["electronics_store", "store", "point_of_interest", "establishment"], "geocode": {"lat": 40.45382, "lng": -86.911064}, "_id": "57cf75cea73e494d8675ed74", "name": "AT&T", "address": {"city": "West Lafayette", "state": "IN", "street number": "404", "zip": "47906", "street name": "Sagamore Parkway West"}}, {"category": ["bar", "restaurant", "food", "point_of_interest", "establishment"], "geocode": {"lat": 40.4206924, "lng": -86.90023149999999}, "_id": "57cf75cea73e494d8675ed75", "name": "Scotty's Brewhouse", "address": {"city": "West Lafayette", "state": "IN", "street number": "352", "zip": "47906", "street name": "East State Street"}}, {"category": ["meal_delivery", "meal_takeaway", "restaurant", "food", "point_of_interest", "establishment"], "geocode": {"lat": 40.4325228, "lng": -86.91432770000002}, "_id": "57cf75cea73e494d8675ed76", "name": "Jimmy John's", "address": {"city": "West Lafayette", "state": "IN", "street number": "720", "zip": "47906", "street name": "Northwestern Avenue"}}, {"category": ["clothing_store", "store", "point_of_interest", "establishment"], "geocode": {"lat": 40.42497059999999, "lng": -86.91125629999999}, "_id": "57cf75cea73e494d8675ed77", "name": "The Purdue Shop", "address": {"city": "West Lafayette", "state": "IN", "street number": "101", "zip": "47907", "street name": "North Grant Street"}}, {"category": ["store", "point_of_interest", "establishment"], "geocode": {"lat": 40.01035900000001, "lng": -86.92910599999999}, "_id": "57cf75cea73e494d8675ed78", "name": "Tom's Marine Sales", "address": {"city": "Crawfordsville", "state": "IN", "street number": "1389", "zip": "47933", "street name": "W 200 S"}}, {"category": ["hardware_store", "home_goods_store", "store", "point_of_interest", "establishment"], "geocode": {"lat": 40.3773198, "lng": -86.8184404}, "_id": "57cf75cea73e494d8675ed79", "name": "Tractor Supply Co.", "address": {"city": "Lafayette", "state": "IN", "zip": "47905"}}, {"category": ["restaurant", "food", "point_of_interest", "establishment"], "geocode": {"lat": 40.36754929999999, "lng": -86.86240389999999}, "_id": "57cf75cea73e494d8675ed7a", "name": "Subway", "address": {"city": "Lafayette", "state": "IN", "street number": "3605", "zip": "47909", "street name": "Osborn Ln"}},